{"timestamp":"2026-04-01T13:02:51.978Z","totalPlaces":8784,"places":[{"name":"The Harbourview","address":"2/F, The Harbourview, 4 Harbour Road, Wan Chai","lat":22.280174,"lng":114.171111,"rating":3.8,"types":["lodging","restaurant","food","point_of_interest","establishment"],"district":""},{"name":"Yung Kee Restaurant","address":"Yung Kee Building, 32-40 Wellington Street, Central","lat":22.2815799,"lng":114.1555671,"rating":3.8,"types":["restaurant","food","point_of_interest","establishment"],"district":""},{"name":"Luk Yu Tea House","address":"24-26 Stanley Street, Central","lat":22.2822145,"lng":114.1555586,"rating":3.6,"types":["restaurant","food","point_of_interest","establishment"],"district":""},{"name":"ABC Kitchen","address":"CF7 1/F, Cooked Food Market, 1 Queen Street, Sheung Wan","lat":22.2871106,"lng":114.1475296,"rating":4,"types":["restaurant","food","point_of_interest","establishment"],"district":""},{"name":"Shugetsu (Central)","address":"5 Gough Street, Central","lat":22.2841317,"lng":114.1528868,"rating":4.2,"types":["restaurant","food","point_of_interest","establishment"],"district":""},{"name":"The Chairman Restaurant","address":"3rd Floor, The Wellington, 198 Wellington Street, Central","lat":22.2848237,"lng":114.1530091,"rating":4.4,"types":["restaurant","food","point_of_interest","establishment"],"district":""},{"name":"Bo Innovation","address":"1/F, H Code, 45 Pottinger Street, Central","lat":22.282212,"lng":114.1545565,"rating":4.3,"types":["restaurant","food","point_of_interest","establishment"],"district":""},{"name":"Two Chinachem Plaza","address":"68 Connaught Road Central, Central","lat":22.2854598,"lng":114.1553218,"rating":3.4,"types":["restaurant","food","point_of_interest","establishment"],"district":""},{"name":"Fook Lam Moon (Wan Chai)","address":"Newman House, Johnston Road, Wan Chai","lat":22.2768606,"lng":114.1709297,"rating":4.2,"types":["restaurant","food","point_of_interest","establishment"],"district":""},{"name":"Peking Garden (Central)","address":"B1, 7-15 Des Voeux Road Central, Central","lat":22.281502,"lng":114.158777,"rating":3.9,"types":["cafe","bakery","restaurant","food","point_of_interest","store","establishment"],"district":""},{"name":"Lung King Heen","address":"4F, Four Seasons Hotel Hong Kong, 8 Finance Street, Central","lat":22.2864276,"lng":114.1570544,"rating":4.5,"types":["restaurant","food","point_of_interest","establishment"],"district":""},{"name":"Amber","address":"15 Queen's Road Central, Central","lat":22.2809925,"lng":114.1577835,"rating":4.5,"types":["restaurant","food","point_of_interest","establishment"],"district":""},{"name":"La Maison","address":"Mountain View Mansion, 2-4 Swatow Street, Wan Chai","lat":22.27541099999999,"lng":114.1716515,"rating":4.2,"types":["restaurant","food","point_of_interest","establishment"],"district":""},{"name":"Caprice","address":"6F, Four Seasons Hotel Hong Kong, 8 Finance Street, Central","lat":22.2864047,"lng":114.1570968,"rating":4.5,"types":["restaurant","food","point_of_interest","establishment"],"district":""},{"name":"cafe TOO","address":"Supreme Court Road, Central","lat":22.276974,"lng":114.1642475,"rating":4.1,"types":["restaurant","food","point_of_interest","establishment"],"district":""},{"name":"Yardbird","address":"Winsome House, 154-158 Wing Lok Street G/F, Shops A and B, Sheung Wan","lat":22.2872875,"lng":114.1491083,"rating":4.5,"types":["restaurant","food","point_of_interest","establishment"],"district":""},{"name":"8 1/2 Otto E Mezzo Bombana","address":"Shop 202, 18 Chater Road, Central","lat":22.28151699999999,"lng":114.1587556,"rating":4.5,"types":["restaurant","food","point_of_interest","establishment"],"district":""},{"name":"Mak An Kee Noodle","address":"37 Wing Kut Street, Central","lat":22.2853278,"lng":114.1541874,"rating":4,"types":["restaurant","food","point_of_interest","establishment"],"district":""},{"name":"One Harbour Road at Grand Hyatt Hong Kong","address":"8th Floor, Grand Hyatt Hong Kong, 1 Harbour Road, Wan Chai","lat":22.2814399,"lng":114.1721267,"rating":4.5,"types":["restaurant","food","point_of_interest","establishment"],"district":""},{"name":"The Foreign Correspondents’ Club, Hong Kong","address":"North, 2 Lower Albert Road, Central","lat":22.2803881,"lng":114.1559798,"rating":4.5,"types":["night_club","tourist_attraction","bar","restaurant","food","point_of_interest","establishment"],"district":""},{"name":"Man Wah","address":"25/F, Mandarin Oriental Hong Kong, 5 Connaught Road Central, Central","lat":22.2819935,"lng":114.1592418,"rating":4.4,"types":["restaurant","food","point_of_interest","establishment"],"district":""},{"name":"Crystal Jade La Mian Xiao Long Bao Wan Chai Branch","address":"Tai Yau Building, Tai Yau Plaza 3rd Floor, Johnston Road, Wan Chai","lat":22.2769715,"lng":114.1745573,"rating":3.9,"types":["restaurant","food","point_of_interest","establishment"],"district":""},{"name":"La Crêperie","address":"1/F, Kui Chi Mansion, 100 Queen's Road East, Wan Chai","lat":22.2762938,"lng":114.1700198,"rating":4.4,"types":["store","restaurant","food","point_of_interest","establishment"],"district":""},{"name":"Grand Hyatt Steakhouse","address":"Lobby Level, Grand Hyatt Hong Kong, 1 Harbour Road, Wan Chai","lat":22.2809683,"lng":114.1723904,"rating":4.5,"types":["restaurant","food","point_of_interest","establishment"],"district":""},{"name":"Le Moment","address":"55 Peel Street, Central","lat":22.2825502,"lng":114.1525778,"rating":4.7,"types":["bar","restaurant","food","point_of_interest","establishment"],"district":""},{"name":"Paisano's Pizzeria","address":"23 Hollywood Road, Central","lat":22.282202,"lng":114.1540155,"rating":4,"types":["restaurant","food","point_of_interest","establishment"],"district":""},{"name":"Veggie 4 love","address":"10/F, 11號 Stanley Street, Central","lat":22.282222,"lng":114.155793,"rating":4.5,"types":["restaurant","food","point_of_interest","establishment"],"district":""},{"name":"Café Landmark","address":"置地廣場中庭, 1 樓 107-108 號, 15 號 Queen's Road Central, Central","lat":22.2812751,"lng":114.1580725,"rating":4.2,"types":["cafe","restaurant","food","point_of_interest","establishment"],"district":""},{"name":"Dot Cod Seafood Restaurant & Oyster Bar","address":"G/F & 1/F, Takshing House, Theatre Lane, 20 Des Voeux Road Central, Central","lat":22.2822268,"lng":114.157196,"rating":4.1,"types":["restaurant","food","point_of_interest","establishment"],"district":""},{"name":"Green Waffle Diner","address":"號地下, 43號 Lyndhurst Terrace, Central","lat":22.2826499,"lng":114.1533293,"rating":4.3,"types":["restaurant","food","point_of_interest","establishment"],"district":""},{"name":"Ivan The Kozak","address":"1樓, 巴力大廈, 63號 雲咸街, 中環","lat":22.2814181,"lng":114.1549115,"rating":4.7,"types":["bar","restaurant","food","point_of_interest","establishment"],"district":""},{"name":"Koh Thai","address":"57 Wyndham Street, Central","lat":22.281268,"lng":114.154941,"rating":3.9,"types":["restaurant","food","point_of_interest","establishment"],"district":""},{"name":"Paisano's Pizzeria","address":"G/F, 5 O'Brien Road, Wan Chai","lat":22.2772604,"lng":114.1734802,"rating":4.1,"types":["restaurant","food","point_of_interest","establishment"],"district":""},{"name":"Clipper Lounge","address":"M/F, Mandarin Oriental Hong Kong, 5 Connaught Road Central, Central","lat":22.281949,"lng":114.159394,"rating":4.2,"types":["restaurant","food","point_of_interest","establishment"],"district":""},{"name":"Brunch Club","address":"70 Peel Street, 70 Peel Street, Central","lat":22.281816,"lng":114.151926,"rating":4.1,"types":["restaurant","food","point_of_interest","establishment"],"district":""},{"name":"曾記粿品","address":"上環皇后街1號皇后街熟食市場8號檔","lat":22.2872315,"lng":114.1474189,"rating":4.2,"types":["restaurant","food","point_of_interest","establishment"],"district":""},{"name":"Boston Restaurant","address":"3號 Luard Road, Wan Chai","lat":22.2767587,"lng":114.17136,"rating":3.6,"types":["restaurant","food","point_of_interest","establishment"],"district":""},{"name":"Al Dente Soho","address":"16 Staunton Street, Central","lat":22.28183569999999,"lng":114.1528923,"rating":4.1,"types":["restaurant","food","point_of_interest","establishment"],"district":""},{"name":"Jiang Nan by Crystal Jade - ifc","address":"Shops 2018-2020, 2/F, ifc mall, 8 Finance Street, Central","lat":22.2848392,"lng":114.1581118,"rating":3.8,"types":["restaurant","food","point_of_interest","establishment"],"district":""},{"name":"Gaia Ristorante","address":"F, 181 Queen's Road Central unit 01-05, G, Sheung Wan","lat":22.2853948,"lng":114.1535499,"rating":4.2,"types":["restaurant","food","point_of_interest","establishment"],"district":""},{"name":"STARBUCKS Jardine House Lobby Shop","address":"Connaught Place, Central","lat":22.2831586,"lng":114.1590378,"rating":3.9,"types":["cafe","food","store","point_of_interest","establishment"],"district":""},{"name":"Café Causette","address":"M/F, Mandarin Oriental Hong Kong, 5 Connaught Road Central, Central","lat":22.2819214,"lng":114.1594774,"rating":4.4,"types":["cafe","food","store","point_of_interest","establishment"],"district":""},{"name":"Coco Espresso (Jervois Street)","address":"13-15 Jervois Street, Sheung Wan","lat":22.2852147,"lng":114.1523998,"rating":4.4,"types":["cafe","food","store","point_of_interest","establishment"],"district":""},{"name":"The Lounge","address":"Four Seasons Hotel Hong Kong, 8 Finance Street, Central","lat":22.2864309,"lng":114.1570737,"rating":4.2,"types":["night_club","cafe","bar","restaurant","food","point_of_interest","establishment"],"district":""},{"name":"Ginger Bakery","address":"55 Johnston Road, Wan Chai","lat":22.27666,"lng":114.171241,"rating":4.3,"types":["cafe","food","point_of_interest","establishment"],"district":""},{"name":"COVA Ristorante & Caffe Pacific Place Branch","address":"88 Queensway, Admiralty","lat":22.277509,"lng":114.166341,"rating":3.8,"types":["cafe","food","point_of_interest","establishment"],"district":""},{"name":"Fuel Espresso ifc","address":"Shop 3023 3/F, ifc mall, Central","lat":22.2849412,"lng":114.1573214,"rating":4.1,"types":["cafe","food","store","point_of_interest","establishment"],"district":""},{"name":"Fuel Espresso Landmark Men","address":"Shop B47A B/F, Landmark Men, Central","lat":22.280609,"lng":114.1577238,"rating":4.2,"types":["cafe","food","store","point_of_interest","establishment"],"district":""},{"name":"Pacific Coffee","address":"G/F, Fortis Bank Tower, 77 - 79 Gloucester Road, Wanchai, Wanchai","lat":22.2789815,"lng":114.1726758,"rating":3.9,"types":["cafe","food","store","point_of_interest","establishment"],"district":""},{"name":"Grand Hyatt Grand Café","address":"Lobby Level, Grand Hyatt Hong Kong, 1 Harbour Road, Wan Chai","lat":22.281286,"lng":114.17209,"rating":4.3,"types":["restaurant","cafe","food","point_of_interest","establishment"],"district":""},{"name":"Le Café","address":"238 Jaffe Road, Wan Chai","lat":22.2788369,"lng":114.1764152,"rating":4,"types":["cafe","food","point_of_interest","establishment"],"district":""},{"name":"Barista Jam","address":"G/F, 97 Jervois Street, Sheung Wan","lat":22.285622,"lng":114.150544,"rating":4.3,"types":["cafe","food","point_of_interest","establishment"],"district":""},{"name":"Shui Kee Coffee","address":"2/F, Queen's Road Central, Sheung Wan","lat":22.2861438,"lng":114.1497771,"rating":4,"types":["cafe","restaurant","food","store","point_of_interest","establishment"],"district":""},{"name":"Dolce 88","address":"88 Queensway, Admiralty","lat":22.2776616,"lng":114.1662015,"rating":4.2,"types":["cafe","bakery","food","store","point_of_interest","establishment"],"district":""},{"name":"Starbucks","address":"3 Garden Road, Central","lat":22.2786123,"lng":114.1609375,"rating":3.9,"types":["cafe","food","store","point_of_interest","establishment"],"district":""},{"name":"Pacific Coffee","address":"Shop 4, Entrance Hall Floor, The Center, 99 Queen's Road, Central, Central","lat":22.284668,"lng":114.154767,"rating":3.9,"types":["cafe","food","store","point_of_interest","establishment"],"district":""},{"name":"STARBUCKS Shun Tak Centre Shop","address":"Shun Tak Centre, 168-200 Connaught Road Central, Sheung Wan","lat":22.2877516,"lng":114.1524929,"rating":3.8,"types":["cafe","food","store","point_of_interest","establishment"],"district":""},{"name":"Podium Cafe","address":"4樓B室, Man Hing Commercial Building, 79-83號 Queen's Road Central, Central","lat":22.283438,"lng":114.1553941,"rating":null,"types":["cafe","food","point_of_interest","establishment"],"district":""},{"name":"Pacific Coffee","address":"St. John's Building, Shop D, G/F, St John's Building, 33 Garden Road, Central, Garden Road, Central","lat":22.2777146,"lng":114.1590998,"rating":3.5,"types":["cafe","food","point_of_interest","store","establishment"],"district":""},{"name":"Affinity Cafe","address":"Hong Kong","lat":22.285538,"lng":114.154562,"rating":4,"types":["cafe","food","point_of_interest","establishment"],"district":""},{"name":"Books & Co.","address":"10 Park Road, Mid-Levels","lat":22.2840513,"lng":114.1434552,"rating":4,"types":["book_store","bakery","cafe","restaurant","food","point_of_interest","store","establishment"],"district":""},{"name":"STARBUCKS Kwong Fat Hong Building Shop","address":"1 Rumsey Street, Sheung Wan","lat":22.28597299999999,"lng":114.153131,"rating":3.6,"types":["cafe","food","point_of_interest","store","establishment"],"district":""},{"name":"STARBUCKS Admiralty Centre Shop","address":"93 Queensway, Admiralty","lat":22.279315,"lng":114.1649826,"rating":3.6,"types":["cafe","food","point_of_interest","store","establishment"],"district":""},{"name":"Pret A Manger","address":"2AB, 89 Queensway Lippo Centre 1/F, Shop No 2AA &","lat":22.2795367,"lng":114.1638785,"rating":4,"types":["bakery","cafe","restaurant","food","point_of_interest","store","establishment"],"district":""},{"name":"Port Cafe","address":"1 Expo Drive","lat":22.283608,"lng":114.172934,"rating":4.7,"types":["restaurant","cafe","food","point_of_interest","establishment"],"district":""},{"name":"Harbour Road Cafe","address":"1 Harbour Road, Wan Chai","lat":22.2810541,"lng":114.1729032,"rating":3.2,"types":["cafe","food","point_of_interest","store","establishment"],"district":""},{"name":"Starbucks","address":"地下1號舖 華比 Fortis Tower 77-79號, Gloucester Road, Wan Chai","lat":22.2789895,"lng":114.1725914,"rating":4,"types":["cafe","food","point_of_interest","store","establishment"],"district":""},{"name":"Uncleruss Coffee, pier 6","address":"Shop kd, lower deck, Central Ferry Pier No.6, Man Kwong Street, Central","lat":22.2873797,"lng":114.1603311,"rating":4.2,"types":["cafe","food","point_of_interest","store","establishment"],"district":""},{"name":"Pacific Coffee","address":"Shop 106 - 110, 1/F, Great Eagle Centre, 23 Harbour Road, Wanchai, Wanchai","lat":22.2811107,"lng":114.1746563,"rating":4,"types":["cafe","food","point_of_interest","store","establishment"],"district":""},{"name":"Delifrance","address":"101及102號舖, 大有廣場, 181號 Johnston Road, Wan Chai","lat":22.2769912,"lng":114.1745406,"rating":3.8,"types":["cafe","food","point_of_interest","establishment"],"district":""},{"name":"K1 Cafe & Bar","address":"Hong Kong","lat":22.28486539999999,"lng":114.1503335,"rating":null,"types":["cafe","food","point_of_interest","establishment"],"district":""},{"name":"STARBUCKS Sun Hung Kai Centre Shop","address":"30 Harbour Road, Wan Chai","lat":22.2803654,"lng":114.1769119,"rating":3.9,"types":["cafe","food","point_of_interest","store","establishment"],"district":""},{"name":"Starbucks (Caine Road, Mid-Levels)","address":"51 Caine Road, Mid-Levels","lat":22.2809451,"lng":114.152656,"rating":4,"types":["cafe","food","point_of_interest","store","establishment"],"district":""},{"name":"STARBUCKS RESERVE™ Hopewell Centre Shop","address":"3F, 183 Queen's Road East, Wan Chai","lat":22.2746422,"lng":114.1717929,"rating":3.8,"types":["cafe","food","point_of_interest","store","establishment"],"district":""},{"name":"Pacific Coffee","address":"Shop 107, Level 1, Tai Yau Plaza, 181 Johnston Road, Wan Chai","lat":22.2770477,"lng":114.1746795,"rating":3.8,"types":["cafe","food","point_of_interest","store","establishment"],"district":""},{"name":"STARBUCKS RESERVE™ International Finance Centre (IFC)","address":"商場2樓2097-2098號舖, International Finance Centre, Central","lat":22.2848956,"lng":114.1593791,"rating":3.8,"types":["cafe","food","point_of_interest","store","establishment"],"district":""},{"name":"Wah Lok Cafe","address":"16號 Tung Street, Central","lat":22.285196,"lng":114.1494923,"rating":4.4,"types":["cafe","restaurant","food","point_of_interest","establishment"],"district":""},{"name":"Starbucks","address":"港鐵站轉車大堂 K4-K5 號舖, Central","lat":22.2819989,"lng":114.1576766,"rating":3.9,"types":["cafe","food","point_of_interest","store","establishment"],"district":""},{"name":"Mingle At The Eden","address":"148 Wellington Street, Central","lat":22.284,"lng":114.153637,"rating":3.5,"types":["bar","point_of_interest","establishment"],"district":""},{"name":"Dragon i","address":"The Centrium, UG/F, 60 Wyndham Street, Central","lat":22.2805456,"lng":114.1547233,"rating":4.1,"types":["bar","point_of_interest","establishment"],"district":""},{"name":"Carnegies","address":"Lockhart Road, Wan Chai","lat":22.27842099999999,"lng":114.170814,"rating":4,"types":["bar","point_of_interest","establishment"],"district":""},{"name":"Fringe Club","address":"2 Lower Albert Road, Central","lat":22.2802398,"lng":114.1557172,"rating":4.2,"types":["art_gallery","bar","restaurant","food","point_of_interest","establishment"],"district":""},{"name":"Trafalgar","address":"5樓, Lockhart Road, Wan Chai","lat":22.2780556,"lng":114.1708333,"rating":3.8,"types":["bar","restaurant","food","point_of_interest","establishment"],"district":""},{"name":"The Globe","address":"Garley Building, 45-53A Graham Street, Central","lat":22.2824181,"lng":114.1526865,"rating":4.4,"types":["bar","restaurant","food","point_of_interest","establishment"],"district":""},{"name":"Graffiti","address":"地下, 17, 17號 Lan Kwai Fong, Central","lat":22.2807574,"lng":114.1553167,"rating":3.9,"types":["bar","point_of_interest","establishment"],"district":""},{"name":"Dharma Den","address":"43 Lyndhurst Terrace, Central","lat":22.282667,"lng":114.153321,"rating":null,"types":["bar","point_of_interest","establishment"],"district":""},{"name":"Staunton's Bar & Kitchen","address":"10-12 Staunton Street, Central","lat":22.281775,"lng":114.1529006,"rating":4.3,"types":["bar","restaurant","food","point_of_interest","establishment"],"district":""},{"name":"Woodlands (Wan Chai) Indian Vegetarian Restaurant in Hong Kong","address":"1/F, 20 Luard Road, Wan Chai","lat":22.2786786,"lng":114.1718584,"rating":4.4,"types":["bar","restaurant","food","point_of_interest","establishment"],"district":""},{"name":"Vice","address":"Hong Kong","lat":22.28079739999999,"lng":114.1553607,"rating":3.9,"types":["bar","point_of_interest","establishment"],"district":""},{"name":"Jimmy's Kitchen","address":"M/F, Pedder Building, 12 Pedder Street, Central","lat":22.2818636,"lng":114.1570102,"rating":4.3,"types":["bar","restaurant","food","point_of_interest","establishment"],"district":""},{"name":"Mandarin Grill + Bar","address":"1/F, Mandarin Oriental Hong Kong, 5 Connaught Road Central, Central","lat":22.281928,"lng":114.159408,"rating":4.6,"types":["bar","restaurant","food","point_of_interest","establishment"],"district":""},{"name":"Volar","address":"Basement 38, 38-44 D'Aguilar Street, Central","lat":22.2807626,"lng":114.1553731,"rating":3.6,"types":["night_club","bar","point_of_interest","establishment"],"district":""},{"name":"Bar 109","address":"109 Lockhart Road, Wan Chai","lat":22.2782096,"lng":114.1723694,"rating":3.9,"types":["bar","restaurant","food","point_of_interest","establishment"],"district":""},{"name":"The Wanch","address":"1/F, Henan Building, 90 Jaffe Road, Wan Chai","lat":22.2785429,"lng":114.1715642,"rating":4.5,"types":["restaurant","bar","food","point_of_interest","establishment"],"district":""},{"name":"Chocolate","address":"Lan Kwai Fong No. 2, G/F, 中環蘭桂坊2號地下, Central","lat":22.280987,"lng":114.155699,"rating":3.5,"types":["bar","point_of_interest","establishment"],"district":""},{"name":"Pool Terrace","address":"6F, Four Seasons Hotel Hong Kong, 8 Finance Street, Central","lat":22.2864869,"lng":114.1568904,"rating":4.6,"types":["meal_takeaway","bar","restaurant","food","point_of_interest","establishment"],"district":""},{"name":"Harvest House Sushi","address":"1/F, 83 Wan Chai Road, Wan Chai","lat":22.2763094,"lng":114.1748452,"rating":4.4,"types":["bar","restaurant","food","point_of_interest","establishment"],"district":""},{"name":"Lobster Bar and Grill","address":"Level 6, Pacific Place, Supreme Court Road, Central","lat":22.2773459,"lng":114.1644976,"rating":4.4,"types":["bar","restaurant","food","point_of_interest","establishment"],"district":""},{"name":"Bar Amazonia","address":"15 Luard Road, Wan Chai","lat":22.2784008,"lng":114.17158,"rating":4,"types":["bar","point_of_interest","establishment"],"district":""},{"name":"Splash Bar","address":"21 Fenwick Street, Wanchai, Hong Kong, G/F, Shop A&B","lat":22.278592,"lng":114.1701775,"rating":null,"types":["bar","restaurant","food","point_of_interest","establishment"],"district":""},{"name":"Culture Club Gallery","address":"15 Elgin Street, Central","lat":22.2828143,"lng":114.1522842,"rating":4.3,"types":["bar","point_of_interest","establishment"],"district":""},{"name":"Charcoal HK","address":"4/F A-B , Ho Lee Commercial Building, 40 D'Aguilar Street, Lan Kwai Fong, Central 中環蘭桂坊德己立街38-44號好利商業大廈4樓A及B室, Central","lat":22.2807786,"lng":114.1553019,"rating":3.9,"types":["bar","night_club","point_of_interest","establishment"],"district":""},{"name":"Soiree","address":"地下 C 舖, Tai Lee Building, HK 香港島 中環 環, 15-19號 Elgin Street","lat":22.2828143,"lng":114.1522842,"rating":4.5,"types":["bar","point_of_interest","establishment"],"district":""},{"name":"The White Stag","address":"62號 Lockhart Road, Wan Chai","lat":22.2780433,"lng":114.1708342,"rating":4.3,"types":["bar","point_of_interest","establishment"],"district":""},{"name":"Sole Mio Italian Restaurant","address":"Upper Ground (UG/F, The Elgin, Soho, 51 Elgin Street, Central","lat":22.2811469,"lng":114.1526154,"rating":4.4,"types":["bar","restaurant","food","point_of_interest","establishment"],"district":""},{"name":"La Lune","address":"號舖, Wing Wo Street, Sheung Wan","lat":22.2853517,"lng":114.1539631,"rating":3.9,"types":["bar","restaurant","food","point_of_interest","establishment"],"district":""},{"name":"Joe Bananas","address":"The Phoenix Bldg 23, Luard Road, Wan Chai","lat":22.2787446,"lng":114.1715046,"rating":3.9,"types":["bar","point_of_interest","establishment"],"district":""},{"name":"Champagne Bar at Grand Hyatt Hong Kong","address":"Lobby Level, Grand Hyatt Hong Kong, 1 Harbour Road, Wan Chai","lat":22.281286,"lng":114.17209,"rating":4.6,"types":["bar","night_club","point_of_interest","establishment"],"district":""},{"name":"Tonic","address":"Yu Yuet Lai Building, Wyndham Street, Central","lat":22.2806808,"lng":114.1549294,"rating":3.3,"types":["bar","point_of_interest","establishment"],"district":""},{"name":"The Beer Bay","address":"Central Pier No. 4 - Yung Shue Wan Ferry Pier, Central","lat":22.2878342,"lng":114.158307,"rating":4.5,"types":["bar","point_of_interest","establishment"],"district":""},{"name":"Le Jardin","address":"Winner Building Block B, 8 Wing Wah Lane, Central","lat":22.2813421,"lng":114.1551891,"rating":4.1,"types":["bar","point_of_interest","establishment"],"district":""},{"name":"Club 1911","address":"27 Staunton Street, Central","lat":22.2821802,"lng":114.1527276,"rating":4.1,"types":["bar","point_of_interest","establishment"],"district":""},{"name":"Zuma Hong Kong","address":"Level 5&6 Landmark Atrium, 15 Queen's Road Central, Central","lat":22.2805197,"lng":114.1578643,"rating":4.3,"types":["night_club","bar","restaurant","food","point_of_interest","establishment"],"district":""},{"name":"Devils Advocate","address":"48 Lockhart Road, Wan Chai","lat":22.2780561,"lng":114.1706842,"rating":3.9,"types":["restaurant","bar","food","point_of_interest","establishment"],"district":""},{"name":"Hong Kong","address":"Hong Kong","lat":22.3193292,"lng":114.1694229,"rating":null,"types":["locality","political"],"district":""},{"name":"HSBC Building","address":"1 Queen's Road Central, Central","lat":22.2802222,"lng":114.1593865,"rating":4.1,"types":["point_of_interest","establishment"],"district":""},{"name":"The Mandarin Cake Shop","address":"M/F, Mandarin Oriental Hong Kong, 5 Connaught Road Central, Central","lat":22.281959,"lng":114.159416,"rating":4.4,"types":["bakery","food","store","point_of_interest","establishment"],"district":""},{"name":"Mandarin Oriental The Landmark, Hong Kong","address":"15 Queen's Road Central, Central","lat":22.280518,"lng":114.157939,"rating":4.5,"types":["spa","lodging","food","point_of_interest","establishment"],"district":""},{"name":"Landmark Prince's","address":"10 Chater Road, Central","lat":22.28119629999999,"lng":114.1592117,"rating":4,"types":["shopping_mall","point_of_interest","establishment"],"district":""},{"name":"LANDMARK","address":"15 Queen's Road Central, Central","lat":22.2811864,"lng":114.1578201,"rating":4.2,"types":["shopping_mall","point_of_interest","establishment"],"district":""},{"name":"La Maison du Chocolat Prince Building太子大廈","address":"Shop 114, Landmark Prince's, 10 Chater Road, Central","lat":22.2811065,"lng":114.1590135,"rating":4.8,"types":["bakery","food","store","point_of_interest","establishment"],"district":""},{"name":"See's Candies Chocolate Shops","address":"15 Queen's Road Central The Landmark, Shop 110B, 1/F, Central","lat":22.280545,"lng":114.157903,"rating":3.9,"types":["food","store","point_of_interest","establishment"],"district":""},{"name":"Tsui Hang Village (Central)","address":"16-18 Queen's Road Central, Central","lat":22.2806147,"lng":114.1573616,"rating":3.9,"types":["restaurant","food","point_of_interest","establishment"],"district":""},{"name":"Marks & Spencer","address":"22-28 Queen's Road Central, Central","lat":22.2811366,"lng":114.1568023,"rating":4.2,"types":["department_store","shoe_store","clothing_store","store","point_of_interest","establishment"],"district":""},{"name":"Central","address":"","lat":22.2799907,"lng":114.1587983,"rating":null,"types":["neighborhood","political"],"district":""},{"name":"Mini Central","address":"38 Ice House Street, Central","lat":22.280489,"lng":114.15634,"rating":3.1,"types":["lodging","point_of_interest","establishment"],"district":""},{"name":"California Tower","address":"30-32 D'Aguilar Street, Central","lat":22.280906,"lng":114.1554893,"rating":4.1,"types":["point_of_interest","establishment"],"district":""},{"name":"The Pottinger Hong Kong","address":"74 Queen's Road Central (Hotel main entrance:, 21 Stanley Street, Central","lat":22.2828401,"lng":114.1553894,"rating":4.3,"types":["lodging","point_of_interest","establishment"],"district":""},{"name":"Sushi Kuu","address":"Baskerville House, G1 號舖, 22 號 Ice House Street, Central","lat":22.2798091,"lng":114.1566967,"rating":4.2,"types":["restaurant","food","point_of_interest","establishment"],"district":""},{"name":"Delifrance","address":"1樓, World Wide House, 19號 Des Voeux Road Central, Central","lat":22.2826295,"lng":114.157823,"rating":3.9,"types":["restaurant","food","point_of_interest","establishment"],"district":""},{"name":"Hong Kong City Hall","address":"五號, 5 愛丁堡廣場, 中環","lat":22.2822389,"lng":114.1616361,"rating":4.2,"types":["point_of_interest","establishment"],"district":""},{"name":"Olé Spanish Restaurant","address":"1/F, Shun Ho Tower, 24-30 Ice House Street, Central","lat":22.280307,"lng":114.156465,"rating":4.4,"types":["restaurant","food","point_of_interest","establishment"],"district":""},{"name":"HKUAA Clubhouse","address":"No.2, Yip Fung Building Room 101, D'Aguilar Street","lat":22.2813798,"lng":114.1562058,"rating":4.1,"types":["restaurant","food","point_of_interest","establishment"],"district":""},{"name":"Happy Bakery","address":"66-68 Queen's Road East, Queen's Road East, Wan Chai","lat":22.2767925,"lng":114.1693214,"rating":4,"types":["bakery","food","store","point_of_interest","establishment"],"district":""},{"name":"La Maison du Chocolat Pacific Place","address":"88 Queensway, Pacific Place - Shop 246, Level 2","lat":22.2771772,"lng":114.1650743,"rating":4.4,"types":["bakery","food","store","point_of_interest","establishment"],"district":""},{"name":"Tai Cheong Bakery","address":"35號 Lyndhurst Terrace, Central","lat":22.282594,"lng":114.153615,"rating":3.9,"types":["bakery","food","store","point_of_interest","establishment"],"district":""},{"name":"Tea WG Boutique (ifc mall)","address":"Podium Level One, #1022, IFC Mall, 1 Harbour View Street, Central","lat":22.2849042,"lng":114.1569078,"rating":4.1,"types":["bakery","restaurant","food","store","point_of_interest","establishment"],"district":""},{"name":"La Maison Du Chocolat IFC","address":"IFC Mall Harvour View Street Central","lat":22.2842044,"lng":114.1590016,"rating":4.3,"types":["bakery","food","store","point_of_interest","establishment"],"district":""},{"name":"Complete Deelite","address":"3/F, On Lan Centre, 11 - 15 On Lan Street, Central","lat":22.2808293,"lng":114.1568952,"rating":4.4,"types":["bakery","school","food","home_goods_store","store","point_of_interest","establishment"],"district":""},{"name":"Jenny Bakery Sheung Wan","address":"號地舖, 15 Wing Wo Street, Sheung Wan","lat":22.285103,"lng":114.1537285,"rating":4,"types":["tourist_attraction","bakery","food","store","point_of_interest","establishment"],"district":""},{"name":"Mrs Fields Cookies","address":"CEN E2號舖, 中環港鐵站, Central","lat":22.2821017,"lng":114.1582532,"rating":4.1,"types":["bakery","food","store","point_of_interest","establishment"],"district":""},{"name":"Pak See Kut Cake Shop","address":"號地下, 67號 Wan Chai Road, Wan Chai","lat":22.27618739999999,"lng":114.174724,"rating":4,"types":["bakery","food","store","point_of_interest","establishment"],"district":""},{"name":"Panash (Wan Chai)","address":"Shop D, G/F, Easey Comm.Bldg, 253-261 Hennessy Road, Wan Chai","lat":22.2781136,"lng":114.1764764,"rating":3.9,"types":["bakery","food","store","point_of_interest","establishment"],"district":""},{"name":"Cova Pasticceria & Confetteria","address":"中環遮打道10號太子大廈1樓134-135號舖","lat":22.2809696,"lng":114.1591583,"rating":4,"types":["bakery","food","store","point_of_interest","establishment"],"district":""},{"name":"Maxim's Cake Lab","address":"地下2 舖, On Hong Commercial Building, 145 Hennessy Road, Wan Chai","lat":22.2777489,"lng":114.1730899,"rating":3.4,"types":["bakery","food","store","point_of_interest","establishment"],"district":""},{"name":"Yamazaki","address":"香港 站 閘 內 hok26 號 b 舖 線, Tung Chung","lat":22.284651,"lng":114.158307,"rating":4,"types":["bakery","food","store","point_of_interest","establishment"],"district":""},{"name":"聖安娜餅屋","address":"地下1號舖, V. Heun Building, 138號 Queen's Road Central, Central","lat":22.2839685,"lng":114.154231,"rating":3.8,"types":["bakery","food","store","point_of_interest","establishment"],"district":""},{"name":"Homebake","address":"Shop B, G/F, 33&33A B, 33號 Queen's Road Central, Central","lat":22.2822463,"lng":114.1563754,"rating":3.6,"types":["bakery","food","point_of_interest","store","establishment"],"district":""},{"name":"Little Mermaid Bakery (IFC店)","address":"Man Kwong Street, Central","lat":22.2871292,"lng":114.1579385,"rating":3.7,"types":["bakery","food","point_of_interest","store","establishment"],"district":""},{"name":"Chocolatier at Grand Hyatt Hong Kong","address":"Grand Hyatt, Mezzanine Floor, 1 Harbour Road, Wan Chai","lat":22.2813846,"lng":114.1721652,"rating":3.7,"types":["bakery","food","point_of_interest","store","establishment"],"district":""},{"name":"Cova Pasticceria & Confetteria","address":"Shop 116A & B, Ocean Centre, 3-27 Canton Road, Tsim Sha Tsui","lat":22.2960139,"lng":114.1685103,"rating":4.1,"types":["bakery","cafe","food","point_of_interest","store","establishment"],"district":""},{"name":"Maxim's Cakes","address":"307 Queen's Road West, Sai Wan","lat":22.287017,"lng":114.1420182,"rating":3.2,"types":["bakery","food","point_of_interest","store","establishment"],"district":""},{"name":"Wing Wah","address":"1 Stewart Road, Wan Chai","lat":22.27832609999999,"lng":114.1766532,"rating":3.9,"types":["bakery","food","point_of_interest","store","establishment"],"district":""},{"name":"Kee Wah Bakery","address":"Shop No. 1020, Podium Level, One International Finance Centre, 1 Harbour View Street, Central","lat":22.2849042,"lng":114.1569078,"rating":4.1,"types":["bakery","food","point_of_interest","store","establishment"],"district":""},{"name":"V8 Bakery","address":"號舖, 8-9 Des Voeux Road Central, Sheung Wan","lat":22.2867101,"lng":114.1505402,"rating":4.1,"types":["bakery","food","point_of_interest","store","establishment"],"district":""},{"name":"美心西餅","address":"368 Queen's Road Central, Tai Ping Shan","lat":22.2858925,"lng":114.1491793,"rating":3.7,"types":["bakery","food","point_of_interest","store","establishment"],"district":""},{"name":"A-1 BAKERY","address":"8 First Street, Sai Ying Pun","lat":22.2864523,"lng":114.1426059,"rating":2.9,"types":["bakery","food","point_of_interest","store","establishment"],"district":""},{"name":"奇華餅家 (中環站店)","address":"G/F & No. 101, 1/F, Nexxus Building, MTR central station, 77 Des Voeux Road Central, Central","lat":22.2821338,"lng":114.1581282,"rating":4.3,"types":["bakery","food","point_of_interest","store","establishment"],"district":""},{"name":"Zoë Cake","address":"Shop 2, 1/F, New World Tower, 1 16- Queen's, 1 Queen's Road Central","lat":22.280489,"lng":114.157237,"rating":4.4,"types":["bakery","food","point_of_interest","store","establishment"],"district":""},{"name":"Maria's Bakery","address":"Shop A ,G/F, Heung Lam Building, 23 Connaught Road Central, Central","lat":22.2832638,"lng":114.157402,"rating":3.5,"types":["bakery","food","point_of_interest","store","establishment"],"district":""},{"name":"Lady M Cake Boutique (ifc Mall)","address":"IFC, HK Hong Kong Island Central Shop 2096A, 2/F, 8 Finance Street","lat":22.2847889,"lng":114.1593513,"rating":3.7,"types":["bakery","restaurant","food","point_of_interest","store","establishment"],"district":""},{"name":"Paul Lafayet","address":"Shop 1104B, 1 Finance Street, Central","lat":22.2849195,"lng":114.1591609,"rating":3.8,"types":["bakery","food","point_of_interest","store","establishment"],"district":""},{"name":"Yoku Moku","address":"國際金融中心商場一期 三樓3021號舖, 1號 Harbour View Street, Central","lat":22.2849042,"lng":114.1569078,"rating":3.3,"types":["bakery","food","point_of_interest","store","establishment"],"district":""},{"name":"Bagels Alley","address":"Shop A1, G/F, 1 Jubilee Street, Central","lat":22.284235,"lng":114.1546783,"rating":4.4,"types":["bakery","cafe","food","point_of_interest","store","establishment"],"district":""},{"name":"Marks & Spencer | M&S Food","address":"1/F, Hollywood Road, Central","lat":22.2820934,"lng":114.1532047,"rating":4.2,"types":["convenience_store","florist","bakery","grocery_or_supermarket","restaurant","food","point_of_interest","store","establishment"],"district":""},{"name":"MAISON KAYSER Mid-Levels Shop","address":"38 Caine Road, Mid-Levels","lat":22.2807201,"lng":114.1525081,"rating":3.9,"types":["bakery","cafe","restaurant","food","point_of_interest","store","establishment"],"district":""},{"name":"FINEPRINT","address":"Fineprint, 38 Peel Street, Central","lat":22.2826808,"lng":114.1527794,"rating":4.3,"types":["cafe","bakery","food","point_of_interest","store","establishment"],"district":""},{"name":"The Mira Hong Kong","address":"118-130 Nathan Road, Tsim Sha Tsui","lat":22.3003264,"lng":114.1722504,"rating":4.1,"types":["spa","lodging","bar","restaurant","food","point_of_interest","establishment"],"district":""},{"name":"Regent Hong Kong","address":"18 Salisbury Road, Tsim Sha Tsui","lat":22.29343620000001,"lng":114.1739346,"rating":4.4,"types":["cafe","bakery","lodging","restaurant","food","store","point_of_interest","establishment"],"district":""},{"name":"Yamm","address":"The Mira Hong Kong, Mira Place, G/F, 118-130 Nathan Road, Tsim Sha Tsui","lat":22.300095,"lng":114.1725341,"rating":3.9,"types":["restaurant","food","point_of_interest","establishment"],"district":""},{"name":"Paisano's","address":"8 Granville Road, Tsim Sha Tsui","lat":22.2996134,"lng":114.1727903,"rating":4,"types":["restaurant","food","point_of_interest","establishment"],"district":""},{"name":"Jiang Nan by Crystal Jade - Harbour City","address":"3328號舖, 海港城港威商場, 廣東道, 尖沙咀","lat":22.29677,"lng":114.1681525,"rating":3.6,"types":["restaurant","food","point_of_interest","establishment"],"district":""},{"name":"Harbourside - Hotel Buffet","address":"Ground Floor, Regent Hong Kong, 18 Salisbury Road, Tsim Sha Tsui","lat":22.2933788,"lng":114.1739512,"rating":4.3,"types":["restaurant","food","point_of_interest","establishment"],"district":""},{"name":"The Luxe Manor","address":"The Luxe Manor, 39 Kimberley Road, Tsim Sha Tsui","lat":22.3008283,"lng":114.1738927,"rating":4.3,"types":["night_club","lodging","bar","restaurant","food","point_of_interest","establishment"],"district":""},{"name":"南海一號 Nanhai No.1","address":"30, iSQUARE, 63 Nathan Road, Tsim Sha Tsui","lat":22.297025,"lng":114.1718959,"rating":3.9,"types":["restaurant","food","point_of_interest","establishment"],"district":""},{"name":"Gaylord Indian Restaurant","address":"5/F, Prince Tower, 12A Peking Road, Tsim Sha Tsui","lat":22.2965053,"lng":114.1712857,"rating":4.2,"types":["meal_takeaway","restaurant","food","point_of_interest","establishment"],"district":""},{"name":"Cafe (Hyatt Regency Hong Kong, Tsim Sha Tsui)","address":"18 Hanoi Road, Tsim Sha Tsui","lat":22.297457,"lng":114.173642,"rating":3.9,"types":["restaurant","food","point_of_interest","establishment"],"district":""},{"name":"Harlan's","address":"19/F, The ONE, 100 Nathan Road, Tsim Sha Tsui","lat":22.2997813,"lng":114.1723859,"rating":4.3,"types":["restaurant","bar","food","point_of_interest","establishment"],"district":""},{"name":"Lai Ching Heen (Yan Toh Heen)","address":"18 Salisbury Road, Tsim Sha Tsui","lat":22.2934001,"lng":114.1740069,"rating":4.5,"types":["restaurant","food","point_of_interest","establishment"],"district":""},{"name":"Cuisine Cuisine The Mira","address":"三樓, The Mira Hong Kong, 118-130號 Nathan Road, Tsim Sha Tsui","lat":22.3001499,"lng":114.1721801,"rating":4.2,"types":["restaurant","food","point_of_interest","establishment"],"district":""},{"name":"Royal Pacific Hotel","address":"L3 3305A, 33 Canton Road, Tsim Sha Tsui","lat":22.3001702,"lng":114.1680287,"rating":4.1,"types":["bar","lodging","restaurant","food","point_of_interest","establishment"],"district":""},{"name":"Palm Court","address":"Lobby Level, The Langham, Hong Kong, 8 Peking Road, Tsim Sha Tsui","lat":22.2963927,"lng":114.1697395,"rating":4.2,"types":["night_club","bar","lodging","restaurant","food","point_of_interest","establishment"],"district":""},{"name":"Prince Hotel, Hong Kong","address":"Harbour City, 23 Canton Road, Tsim Sha Tsui","lat":22.2992221,"lng":114.1683675,"rating":4.2,"types":["bar","lodging","restaurant","food","point_of_interest","establishment"],"district":""},{"name":"Chee Kei","address":"52 Lock Road, Tsim Sha Tsui","lat":22.2979475,"lng":114.1716016,"rating":4,"types":["restaurant","food","point_of_interest","establishment"],"district":""},{"name":"Morton's The Steakhouse","address":"The Sheraton Hotel & Towers Fourth Level, 20 Nathan Road, Tsim Sha Tsui","lat":22.2952499,"lng":114.1726456,"rating":4.4,"types":["restaurant","food","point_of_interest","establishment"],"district":""},{"name":"The Window Cafe","address":"2樓, The Kowloon Hotel, 19～21號 Nathan Road, Tsim Sha Tsui","lat":22.29573959999999,"lng":114.1716649,"rating":3.9,"types":["restaurant","food","point_of_interest","establishment"],"district":""},{"name":"The Royal Garden","address":"69號 Mody Road, Tsim Sha Tsui East","lat":22.2984848,"lng":114.1776012,"rating":4.2,"types":["lodging","restaurant","food","point_of_interest","establishment"],"district":""},{"name":"Curry House CoCo Ichibanya (Tsim Sha Tsui)","address":"Shop 302, 30 Canton Road, Tsim Sha Tsui","lat":22.2978636,"lng":114.1690261,"rating":4,"types":["restaurant","food","point_of_interest","establishment"],"district":""},{"name":"Cucina","address":"Harbour City, Level 6, Marco Polo Hongkong Hotel, 3 Canton Road, Tsim Sha Tsui","lat":22.2951517,"lng":114.1687776,"rating":4.4,"types":["restaurant","food","point_of_interest","establishment"],"district":""},{"name":"Sun Tung Lok Chinese Cuisine","address":"Hong Kong","lat":22.30095,"lng":114.1721595,"rating":4.1,"types":["restaurant","food","point_of_interest","establishment"],"district":""},{"name":"Café on the PARK","address":"2/F, Hotel Wing Royal Pacific Hotel, 33 Canton Road, Tsim Sha Tsui","lat":22.3003748,"lng":114.1677238,"rating":3.8,"types":["cafe","restaurant","food","point_of_interest","establishment"],"district":""},{"name":"Café 103 | The Ritz-Carlton, Hong Kong","address":"International Commerce Centre (ICC), 1 Austin Road West, Tsim Sha Tsui","lat":22.3049692,"lng":114.1615821,"rating":4,"types":["cafe","restaurant","food","point_of_interest","establishment"],"district":""},{"name":"Lok Yuen","address":"Hong Kong","lat":22.2962104,"lng":114.1716137,"rating":3.9,"types":["cafe","food","point_of_interest","store","establishment"],"district":""},{"name":"Barista Caffe","address":"3/F, 18號 Ashley Road, Tsim Sha Tsui","lat":22.2971462,"lng":114.1707116,"rating":4.2,"types":["cafe","food","point_of_interest","store","establishment"],"district":""},{"name":"Kubrick","address":"地眾坊街3號 駿發花園H2地舖, Yau Ma Tei","lat":22.3107689,"lng":114.1689492,"rating":4.1,"types":["cafe","food","point_of_interest","establishment"],"district":""},{"name":"Panash Cafe (iSQUARE)","address":"Shop 305, 3/F, iSQUARE, 63 Nathan Road, Tsim Sha Tsui","lat":22.297025,"lng":114.1718959,"rating":3.7,"types":["cafe","food","point_of_interest","establishment"],"district":""},{"name":"Café Kool","address":"Mezzanine Level, 64 Mody Road, Tsim Sha Tsui East","lat":22.296987,"lng":114.1770057,"rating":4,"types":["cafe","restaurant","food","point_of_interest","store","establishment"],"district":""},{"name":"The Lounge & Bar | The Ritz-Carlton, Hong Kong","address":"International Commerce Centre (ICC), 102/F, The Ritz-Carlton, Hong Kong, 1 Austin Road West, Tsim Sha Tsui","lat":22.3034601,"lng":114.1602218,"rating":4.4,"types":["cafe","restaurant","food","point_of_interest","establishment"],"district":""},{"name":"HABITŪ Elements","address":"1001, 1 Austin Road West, Yau Ma Tei","lat":22.3030548,"lng":114.1631317,"rating":3.6,"types":["restaurant","meal_delivery","cafe","food","point_of_interest","store","establishment"],"district":""},{"name":"Pacific Coffee","address":"Shop No. 4A&4B, Promenade Level, Tower 1, China Hong Kong City, 33 Canton Road, Tsim Sha Tsui","lat":22.3002221,"lng":114.1677279,"rating":4,"types":["cafe","food","point_of_interest","store","establishment"],"district":""},{"name":"The Lobby Lounge - Afternoon Tea","address":"18 Salisbury Road, Tsim Sha Tsui","lat":22.2933788,"lng":114.1739512,"rating":4.3,"types":["cafe","bakery","restaurant","food","point_of_interest","store","establishment"],"district":""},{"name":"Starbucks","address":"102 Austin Road, Tsim Sha Tsui","lat":22.3031681,"lng":114.1723191,"rating":3.9,"types":["cafe","food","point_of_interest","store","establishment"],"district":""},{"name":"Coffee Corner","address":"The Kowloon Hotel, 19-21 Nathan Road, Tsim Sha Tsui","lat":22.2958043,"lng":114.1718959,"rating":3.7,"types":["cafe","food","point_of_interest","store","establishment"],"district":""},{"name":"Lan Fong Yuen Tsim Sha Tsui","address":"44 Nathan Road, Tsim Sha Tsui","lat":22.296396,"lng":114.1728114,"rating":3.8,"types":["cafe","meal_takeaway","restaurant","food","point_of_interest","store","establishment"],"district":""},{"name":"COCO","address":"Ground Floor, The Mira Hong Kong, 118 Nathan Road, Tsim Sha Tsui","lat":22.3000829,"lng":114.1725374,"rating":3.6,"types":["cafe","food","point_of_interest","establishment"],"district":""},{"name":"The Peninsula Boutique & Café","address":"The Peninsula Arcade, Salisbury Road, Tsim Sha Tsui","lat":22.2951206,"lng":114.1715171,"rating":4.3,"types":["cafe","food","point_of_interest","establishment"],"district":""},{"name":"HABITŪ (The ONE)","address":"Shop 5A, 100 Nathan Road, Tsim Sha Tsui","lat":22.2998471,"lng":114.1725035,"rating":3.8,"types":["cafe","restaurant","food","point_of_interest","store","establishment"],"district":""},{"name":"STARBUCKS Nathan Hotel Shop","address":"Shop A, G/F, Nathan Hotel, 378 Nathan Road, Yau Ma Tei","lat":22.307698,"lng":114.171577,"rating":3.7,"types":["cafe","food","point_of_interest","store","establishment"],"district":""},{"name":"Café de Coral","address":"Harbour City, Canton Road, Tsim Sha Tsui","lat":22.2986638,"lng":114.1683417,"rating":3.6,"types":["cafe","restaurant","food","point_of_interest","establishment"],"district":""},{"name":"Mall Cafe","address":"41 Salisbury Road, Tsim Sha Tsui","lat":22.2951876,"lng":114.1711065,"rating":4.1,"types":["cafe","restaurant","food","point_of_interest","establishment"],"district":""},{"name":"STARBUCKS Elements 2F Shop","address":"level 2, 1 Austin Road West, West Kowloon","lat":22.3045949,"lng":114.1620254,"rating":3.9,"types":["cafe","restaurant","food","point_of_interest","store","establishment"],"district":""},{"name":"Starbucks","address":"Shop B06A, Lippo Sun Plaza, 28 Canton Road, Tsim Sha Tsui","lat":22.2968282,"lng":114.1697566,"rating":3.9,"types":["cafe","food","point_of_interest","store","establishment"],"district":""},{"name":"OZONE | The Ritz-Carlton, Hong Kong","address":"International Commerce Centre (ICC), 118/F, The Ritz-Carlton, Hong Kong, 1 Austin Road West, Tsim Sha Tsui","lat":22.3033986,"lng":114.1601865,"rating":4.3,"types":["bar","night_club","point_of_interest","establishment"],"district":""},{"name":"Lobby Lounge at Kowloon Shangri-La, Hong Kong","address":"Lobby Level, 64 Mody Road, Tsim Sha Tsui East","lat":22.296987,"lng":114.1770057,"rating":4.2,"types":["restaurant","night_club","bar","food","point_of_interest","establishment"],"district":""},{"name":"Biergarten German Bar & Restaurant","address":"Shop 1, G/F, 5 Hanoi Road, Tsim Sha Tsui","lat":22.2977236,"lng":114.1742414,"rating":4.2,"types":["bar","restaurant","food","point_of_interest","establishment"],"district":""},{"name":"aqua","address":"17/F, H Zentre, 15 Middle Road, Tsim Sha Tsui","lat":22.2953974,"lng":114.1733859,"rating":4.2,"types":["restaurant","bar","food","point_of_interest","establishment"],"district":""},{"name":"NED KELLY'S LAST STAND","address":"11A Ashley Road, Tsim Sha Tsui","lat":22.2967361,"lng":114.1704083,"rating":4.3,"types":["night_club","bar","point_of_interest","establishment"],"district":""},{"name":"Delaney's The Irish Pub","address":"Basement, Mary Building, 71-77 Peking Road, Tsim Sha Tsui","lat":22.2963608,"lng":114.1716878,"rating":4.3,"types":["bar","restaurant","food","point_of_interest","establishment"],"district":""},{"name":"M1 Bar","address":"5-9 Hart Avenue, Tsim Sha Tsui","lat":22.29797599999999,"lng":114.174201,"rating":3.9,"types":["bar","point_of_interest","establishment"],"district":""},{"name":"Felix","address":"Salisbury Road, 28/F The Peninsula, Tsim Sha Tsui","lat":22.2952306,"lng":114.171875,"rating":4.4,"types":["bar","restaurant","food","point_of_interest","establishment"],"district":""},{"name":"Sky Lounge 視佳廊","address":"18/F, Sheraton Hong Kong Hotel And Towers, 20 Nathan Road, Tsim Sha Tsui","lat":22.295164,"lng":114.1726391,"rating":4.4,"types":["night_club","bar","point_of_interest","establishment"],"district":""},{"name":"Eyebar","address":"30/F, ISQUARE, 63 Nathan Road, Tsim Sha Tsui","lat":22.2971751,"lng":114.1718269,"rating":4.1,"types":["bar","point_of_interest","establishment"],"district":""},{"name":"J1 club","address":"Austin Tower, 22-26 Austin Avenue, Tsim Sha Tsui","lat":22.3032741,"lng":114.1749804,"rating":3.8,"types":["bar","point_of_interest","establishment"],"district":""},{"name":"Hutong","address":"H Zentre, 18/F, 15 Middle Road, Tsim Sha Tsui","lat":22.2954247,"lng":114.1733149,"rating":4.2,"types":["bar","restaurant","food","point_of_interest","establishment"],"district":""},{"name":"Joe Bananas Kowloon","address":"9 Knutsford Terrace, Tsim Sha Tsui","lat":22.301239,"lng":114.1738801,"rating":4.3,"types":["bar","point_of_interest","establishment"],"district":""},{"name":"Lulu","address":"5 Hanoi Road, Tsim Sha Tsui","lat":22.2977306,"lng":114.1741457,"rating":3.8,"types":["bar","point_of_interest","establishment"],"district":""},{"name":"Stormies","address":"Shop R005 - R007, 1 Austin Road West, Tsim Sha Tsui","lat":22.3042331,"lng":114.161391,"rating":4,"types":["bar","restaurant","food","point_of_interest","establishment"],"district":""},{"name":"M+","address":"38 Museum Drive, West Kowloon","lat":22.3005044,"lng":114.159495,"rating":4.3,"types":["tourist_attraction","museum","point_of_interest","establishment"],"district":""},{"name":"West Kowloon","address":"Hong Kong","lat":22.29914,"lng":114.1583,"rating":3.4,"types":["transit_station","point_of_interest","establishment"],"district":""},{"name":"The Butchers Truck","address":"22 Museum Drive, Tsim Sha Tsui","lat":22.2990071,"lng":114.1573681,"rating":4.1,"types":["restaurant","food","point_of_interest","establishment"],"district":""},{"name":"VISIONAIRS - Virtual Reality Art/Museum Experience","address":"Units GF- 01-03, 22 Museum Drive, West Kowloon, ArtPark Facing Victoria Harbour, Tsim Sha Tsui","lat":22.2989398,"lng":114.1568506,"rating":4.8,"types":["museum","point_of_interest","establishment"],"district":""},{"name":"Kowloon Ventilation Building","address":"West Kowloon","lat":22.2993604,"lng":114.1579796,"rating":3.8,"types":["point_of_interest","establishment"],"district":""},{"name":"Yau Veggie Truck","address":"HK 九龍 尖沙咀 SLK 03 WestK Quay, Art Park, WestK","lat":22.2994954,"lng":114.1584824,"rating":4.2,"types":["restaurant","food","point_of_interest","establishment"],"district":""},{"name":"FAM","address":"Units GF- 01-03, 22 Museum Drive, West Kowloon, Tsim Sha Tsui","lat":22.2991065,"lng":114.1569976,"rating":3.8,"types":["restaurant","food","point_of_interest","establishment"],"district":""},{"name":"艇啤 Teng Beer","address":"West Kowloon Pier, Tsim Sha Tsui","lat":22.2995094,"lng":114.158549,"rating":5,"types":["bar","point_of_interest","establishment"],"district":""},{"name":"Stackd Pickleball WestK Popup","address":"Units GF01-03, 22 Museum Drive, West Kowloon, Tsim Sha Tsui","lat":22.2991188,"lng":114.1570032,"rating":5,"types":["point_of_interest","establishment"],"district":""},{"name":"Food trucks","address":"Hong Kong, Tsim Sha Tsui, West","lat":22.29951059999999,"lng":114.1584011,"rating":null,"types":["cafe","food","point_of_interest","store","establishment"],"district":""},{"name":"龍霸 by Mak’s Beer","address":"West Kowloon dog park, West Kowloon, Tsim Sha Tsui","lat":22.2995585,"lng":114.1585624,"rating":4.8,"types":["restaurant","food","point_of_interest","establishment"],"district":""},{"name":"PANO","address":"尖沙咀博物館道24-26號 西九文化區藝術公園1樓1號舖, Tsim Sha Tsui","lat":22.2991619,"lng":114.1569366,"rating":4.3,"types":["restaurant","food","point_of_interest","establishment"],"district":""},{"name":"Public Toilet","address":"Western Harbour Crossing","lat":22.2994492,"lng":114.1574885,"rating":4.8,"types":["point_of_interest","establishment"],"district":""},{"name":"WestK Quay","address":"WestK Quay","lat":22.2996677,"lng":114.1587625,"rating":3.4,"types":["point_of_interest","establishment"],"district":""},{"name":"Drinking water fountain","address":"26號 Museum Drive, West Kowloon","lat":22.299509,"lng":114.157449,"rating":null,"types":["point_of_interest","establishment"],"district":""},{"name":"旭宵食堂 HARU","address":"Cultural District, Unit G04, G/F, Art Park West Kowloon, 22 Museum Drive, Tsim Sha Tsui","lat":22.2989425,"lng":114.1560884,"rating":4.6,"types":["restaurant","food","point_of_interest","establishment"],"district":""},{"name":"West Kowloon Cultural District Park Management Office","address":"26號 Museum Drive, West Kowloon","lat":22.299722,"lng":114.157735,"rating":4.2,"types":["point_of_interest","establishment"],"district":""},{"name":"Tea Fun 茶醺","address":"Licensed Space No. 4, Art Park, 18 Museum Drive, West Kowloon, Yau Ma Tei","lat":22.2998655,"lng":114.1584635,"rating":4.7,"types":["restaurant","food","point_of_interest","establishment"],"district":""},{"name":"Play with Years 素年","address":"Unit GF-05, G/F, Art Park. 22 Museum Drive, West Kowloon, Tsim Sha Tsui","lat":22.2989249,"lng":114.1559387,"rating":4,"types":["restaurant","food","point_of_interest","establishment"],"district":""},{"name":"Café Bohème West Kowloon","address":"Unit GF-06, G/F, 22 Museum Drive, West Kowloon","lat":22.2989178,"lng":114.1558537,"rating":4.2,"types":["meal_takeaway","restaurant","food","point_of_interest","establishment"],"district":""},{"name":"Baby Sonnys","address":"Museum Drive, West Kowloon","lat":22.3000649,"lng":114.1595025,"rating":4,"types":["restaurant","food","point_of_interest","establishment"],"district":""},{"name":"Quanh Nam","address":"Unit GF-07, 22 Museum Drive, West Kowloon","lat":22.2990158,"lng":114.1556894,"rating":4.6,"types":["restaurant","food","point_of_interest","establishment"],"district":""},{"name":"Hooman by the sea","address":"Unit GF-07, G/F, 22 Museum Drive, West Kowloon, Tsim Sha Tsui","lat":22.2989643,"lng":114.1556247,"rating":3.8,"types":["cafe","food","point_of_interest","establishment"],"district":""},{"name":"M+ Paradise","address":"38 Museum Drive","lat":22.3003742,"lng":114.1593717,"rating":4.6,"types":["point_of_interest","establishment"],"district":""},{"name":"852 Convenience Store","address":"26號 Museum Drive, West Kowloon","lat":22.3003059,"lng":114.1577037,"rating":4.5,"types":["convenience_store","food","point_of_interest","store","establishment"],"district":""},{"name":"852 Eight Five Two","address":"West Kowloon culture district Art park.3, Wang Tau Hom","lat":22.3003024,"lng":114.1575869,"rating":4,"types":["convenience_store","food","point_of_interest","store","establishment"],"district":""},{"name":"Curator Creative Café at M+","address":"Cultural District, Unit C, B1/F, Museum Plus (M+ West Kowloon, 38 Museum Drive, Kowloon","lat":22.3004467,"lng":114.1594554,"rating":3.4,"types":["cafe","food","point_of_interest","establishment"],"district":""},{"name":"nodi (M+ Museum)","address":"Unit C, B1/F, Museum Plus (M+ West Kowloon, Cultural District, 38 Museum Drive, Kowloon","lat":22.3004467,"lng":114.1594554,"rating":5,"types":["point_of_interest","establishment"],"district":""},{"name":"Hustle Session地點","address":"M+ Paradise, 38 Museum Drive, Tsim Sha Tsui","lat":22.300481,"lng":114.159264,"rating":5,"types":["point_of_interest","establishment"],"district":""},{"name":"M+ Lounge | M+會館","address":"11/F, Cultural District, 38 Museum Drive, West Kowloon","lat":22.3004762,"lng":114.1594683,"rating":3.5,"types":["cafe","food","point_of_interest","store","establishment"],"district":""},{"name":"West Kowloon Art Park","address":"West Kowloon Cultural District, Tsim Sha Tsui","lat":22.2991007,"lng":114.1551603,"rating":4.4,"types":["park","point_of_interest","establishment"],"district":""},{"name":"OVESER冷凍自動販賣機 (8052)","address":"Creator Studio, B1, M+ Tower, 38 Museum Drive, Yau Ma Tei","lat":22.300503,"lng":114.159494,"rating":null,"types":["restaurant","food","point_of_interest","establishment"],"district":""},{"name":"璞","address":"M+","lat":22.3005044,"lng":114.159495,"rating":4.4,"types":["food","point_of_interest","establishment"],"district":""},{"name":"Lingnan@WestKowloon","address":"Floor 12, 38 Museum Drive, West Kowloon","lat":22.3005044,"lng":114.159495,"rating":5,"types":["school","point_of_interest","establishment"],"district":""},{"name":"AGATE","address":"Unit A, B1/F, Museum Plus (M+, Cultural District, 38 Museum Drive, West Kowloon","lat":22.3005044,"lng":114.159495,"rating":4.4,"types":["restaurant","food","point_of_interest","establishment"],"district":""},{"name":"Picasso for Asia—A Conversation","address":"38 Museum Drive","lat":22.3005164,"lng":114.1594998,"rating":null,"types":["point_of_interest","establishment"],"district":""},{"name":"The M+ Shop","address":"G/F Floor, M+ building, 38 Museum Drive West Kowloon, Tsim Sha Tsui","lat":22.3005164,"lng":114.1594998,"rating":4.2,"types":["store","point_of_interest","establishment"],"district":""},{"name":"Mediatheque","address":"Floor 12, 38 Museum Drive, West Kowloon","lat":22.3005287,"lng":114.1594512,"rating":null,"types":["point_of_interest","establishment"],"district":""},{"name":"Pastry Gems","address":"Hong Kong","lat":22.3034032,"lng":114.1601917,"rating":null,"types":["bakery","food","point_of_interest","store","establishment"],"district":""},{"name":"LA MAISON DU CHOCOLAT Elements Store","address":"九龍圓方, 1 A Austin Road West Shop 1010 Elements","lat":22.3032096,"lng":114.168434,"rating":4.1,"types":["bakery","food","point_of_interest","store","establishment"],"district":""},{"name":"Godiva Chocolatier (Elements)","address":"尖沙咀柯士甸道西1號圓方(Elements)1樓1097號舖, West Kowloon","lat":22.3045226,"lng":114.162297,"rating":3.1,"types":["bakery","food","point_of_interest","store","establishment"],"district":""},{"name":"Mrs Fields Cookies","address":"TST4號舖, 尖沙咀港鐵站, 尖沙咀","lat":22.2977264,"lng":114.1722765,"rating":3.6,"types":["bakery","food","point_of_interest","store","establishment"],"district":""},{"name":"Paul Lafayet","address":"3/F, Harbour City, City'Super, Tsim Sha Tsui","lat":22.2979289,"lng":114.1679474,"rating":3.9,"types":["bakery","food","point_of_interest","store","establishment"],"district":""},{"name":"Godiva Chocolatier (Harbour City)","address":"Shop 3209, Level, 海港城, 3號 Gateway Boulevard, Tsim Sha Tsui","lat":22.2978906,"lng":114.1682769,"rating":3.9,"types":["bakery","food","point_of_interest","store","establishment"],"district":""},{"name":"Italian Tomato (iSQUARE)","address":"LG層1號舖, ISQUARE國際廣場, 63號 彌敦道, 尖沙咀","lat":22.2967908,"lng":114.1720057,"rating":4.3,"types":["bakery","food","point_of_interest","store","establishment"],"district":""},{"name":"Wing Wah","address":"33-35 Chatham Road South, Tsim Sha Tsui","lat":22.298185,"lng":114.175402,"rating":3.9,"types":["bakery","food","store","point_of_interest","establishment"],"district":""},{"name":"奇華餅家 (中港城店)","address":"Shop 18, 33 Canton Road, Tsim Sha Tsui","lat":22.3005554,"lng":114.1677275,"rating":3.9,"types":["bakery","food","store","point_of_interest","establishment"],"district":""},{"name":"Maxim's Cake","address":"LG03, 63 Nathan Road, Tsim Sha Tsui","lat":22.2966727,"lng":114.1719839,"rating":3.9,"types":["bakery","food","store","point_of_interest","establishment"],"district":""},{"name":"Jenny Bakery Tsim Sha Tsui","address":"號舖, 彌敦道62號，美麗都大廈1樓42, 62號 Nathan Road, Tsim Sha Tsui","lat":22.2972567,"lng":114.1726391,"rating":3.9,"types":["tourist_attraction","bakery","food","store","point_of_interest","establishment"],"district":""},{"name":"BreadTalk","address":"235 Nathan Road, Jordan","lat":22.305,"lng":114.1713889,"rating":3.5,"types":["bakery","food","store","point_of_interest","establishment"],"district":""},{"name":"Coco Frans","address":"尖沙咀港鐵尖沙咀站2號舖","lat":22.2967898,"lng":114.1721803,"rating":null,"types":["bakery","food","store","point_of_interest","establishment"],"district":""},{"name":"Domie Cake Shop Ltd","address":"G/F, 107 柯士甸道, 尖沙咀","lat":22.3033958,"lng":114.1728217,"rating":4.4,"types":["bakery","food","store","point_of_interest","establishment"],"district":""},{"name":"Fine Foods Shop","address":"69 Mody Road, Tsim Sha Tsui East","lat":22.2984665,"lng":114.1778039,"rating":4.3,"types":["bakery","food","store","point_of_interest","establishment"],"district":""},{"name":"Baked By Shangri-La","address":"Lobby Level, 64 Mody Road Tsim Sha Tsui East, Tsim Sha Tsui","lat":22.296987,"lng":114.1770057,"rating":4.1,"types":["bakery","food","store","point_of_interest","establishment"],"district":""},{"name":"Bakery King","address":"125-133 Shanghai Street, 133 Shanghai Street, Jordan","lat":22.3065579,"lng":114.1694426,"rating":4.5,"types":["bakery","food","store","point_of_interest","establishment"],"district":""},{"name":"Maxim's Cakes","address":"Hong Kong","lat":22.2964103,"lng":114.1757973,"rating":3.2,"types":["bakery","food","store","point_of_interest","establishment"],"district":""},{"name":"Maxim's Cakes","address":"Kiosk JOR 14 Jordon MTR Station Jordan, Kwun Chung","lat":22.3048218,"lng":114.1719424,"rating":3.1,"types":["bakery","food","store","point_of_interest","establishment"],"district":""},{"name":"LUCULLUS 龍島 (iSQUARE店)","address":"Shop 4B, LG/F, iSQUARE, 63 Nathan Road, Tsim Sha Tsui","lat":22.297025,"lng":114.1718959,"rating":3.7,"types":["bakery","food","store","point_of_interest","establishment"],"district":""},{"name":"Little Mermaid Bakery","address":"尖沙咀廣東道17號海港城港威商場3樓cookedDeli by city'super","lat":22.2983472,"lng":114.1684645,"rating":3.8,"types":["bakery","food","store","point_of_interest","establishment"],"district":""},{"name":"Regal Patisserie","address":"G/F, 71 Mody Road, Tsim Sha Tsui","lat":22.298894,"lng":114.177961,"rating":4.3,"types":["bakery","restaurant","food","store","point_of_interest","establishment"],"district":""},{"name":"Plaza Mayor","address":"4 Sun Street, Wan Chai","lat":22.2765411,"lng":114.1686448,"rating":4.2,"types":["restaurant","food","point_of_interest","establishment"],"district":""},{"name":"Ruth's Chris Steak House","address":"89 Queensway Lippo Centre, Ground Level","lat":22.279188,"lng":114.163833,"rating":4.2,"types":["restaurant","food","point_of_interest","establishment"],"district":""},{"name":"The Oyster House","address":"25/F, 202 Queen's Road East, Wan Chai","lat":22.2749823,"lng":114.1721978,"rating":4.2,"types":["restaurant","food","point_of_interest","establishment"],"district":""},{"name":"Restaurant Petrus","address":"Level 56, Pacific Place, Supreme Court Road, Central","lat":22.2773632,"lng":114.1644981,"rating":4.5,"types":["restaurant","food","point_of_interest","establishment"],"district":""},{"name":"Chilli Paste","address":"Amoy Street, Wan Chai","lat":22.27552309999999,"lng":114.1718122,"rating":4.2,"types":["restaurant","food","point_of_interest","establishment"],"district":""},{"name":"The Lounge","address":"J W Marriott Hotel Hong Kong Cum The Upper House, Queensway, Admiralty","lat":22.2776513,"lng":114.1663702,"rating":4.2,"types":["restaurant","food","point_of_interest","establishment"],"district":""},{"name":"Lippo Chiuchow Restaurant","address":"89 Queensway, Central","lat":22.2794036,"lng":114.1634979,"rating":4,"types":["restaurant","food","point_of_interest","establishment"],"district":""},{"name":"Grappa's QRE","address":"18 Queen's Road East, Wan Chai","lat":22.2773995,"lng":114.1683341,"rating":4.2,"types":["restaurant","food","point_of_interest","establishment"],"district":""},{"name":"Golden Leaf","address":"88 Queensway, Admiralty","lat":22.2773516,"lng":114.1654818,"rating":4.2,"types":["restaurant","food","point_of_interest","establishment"],"district":""},{"name":"Nadaman at Island Shangri-La, Hong Kong","address":"Level 7, Pacific Place, Supreme Court Road, Central","lat":22.2773618,"lng":114.1644802,"rating":4.2,"types":["restaurant","food","point_of_interest","establishment"],"district":""},{"name":"can.teen","address":"海富中心1樓85-93號舖, 18號 Harcourt Road, Admiralty","lat":22.279485,"lng":114.164822,"rating":3.4,"types":["restaurant","food","point_of_interest","establishment"],"district":""},{"name":"Ye Shanghai (Admiralty)","address":"Shop 332, 3/F, Pacific Place, 88 Queensway, Admiralty","lat":22.2778255,"lng":114.1653953,"rating":4.1,"types":["restaurant","food","point_of_interest","establishment"],"district":""},{"name":"Westwood Carvery","address":"號地舖, 中環蘭桂坊, 2 Wo On Lane, Central","lat":22.2813127,"lng":114.1555148,"rating":4.3,"types":["restaurant","food","point_of_interest","establishment"],"district":""},{"name":"Akita Teppanyaki Sashimi - Wan Chai","address":"8F, 202 Queen's Road East, Wan Chai","lat":22.2749823,"lng":114.1721978,"rating":4.3,"types":["restaurant","food","point_of_interest","establishment"],"district":""},{"name":"Pacific Coffee","address":"1/F, West Hall, 1 Garden Road, Central","lat":22.2792726,"lng":114.161568,"rating":3.4,"types":["cafe","food","point_of_interest","store","establishment"],"district":""},{"name":"Café Lavande","address":"Ground Floor A, 4 Prince's Terrace, Mid-Levels","lat":22.2807725,"lng":114.1518575,"rating":4.4,"types":["cafe","food","point_of_interest","establishment"],"district":""},{"name":"祥興咖啡","address":"香港仔香港仔街市大廈2樓熟食中心","lat":22.249378,"lng":114.1544258,"rating":3.6,"types":["cafe","restaurant","food","point_of_interest","establishment"],"district":""},{"name":"Blend & Grind Starstreet","address":"Shun Ho Building, 1 Sun Street, Wan Chai","lat":22.27659,"lng":114.1685215,"rating":4.6,"types":["cafe","bar","restaurant","food","point_of_interest","store","establishment"],"district":""},{"name":"Tram View Cafe","address":"2 Tramway Path, Mid-Levels","lat":22.2767297,"lng":114.1582721,"rating":4.1,"types":["cafe","food","point_of_interest","establishment"],"district":""},{"name":"Cotton Tree Cafe","address":"Hong Kong Squash Centre, 23 Cotton Tree Drive, Central","lat":22.2774211,"lng":114.1600166,"rating":4.1,"types":["cafe","food","point_of_interest","establishment"],"district":""},{"name":"Starbucks (Cheung Kong Center)","address":"Cheung Kong Center, Central","lat":22.2794651,"lng":114.1603036,"rating":3.4,"types":["cafe","store","food","point_of_interest","establishment"],"district":""},{"name":"Elephant Grounds","address":"8 Wing Fung Street, Wan Chai","lat":22.276757,"lng":114.1682316,"rating":3.9,"types":["cafe","store","food","point_of_interest","establishment"],"district":""},{"name":"Baumhaus Wan Chai","address":"1/F, Kar Yau Building, 36-44 Queen's Road East, Wan Chai","lat":22.2772599,"lng":114.1685874,"rating":4.6,"types":["cafe","food","point_of_interest","establishment"],"district":""},{"name":"Coco Espresso (Wan Chai)","address":"Shop C, 1 Anton Street, Wan Chai","lat":22.2772911,"lng":114.1687624,"rating":4.5,"types":["cafe","store","food","point_of_interest","establishment"],"district":""},{"name":"Ho Lan Jeng","address":"2/F, LKF29, 29 Wyndham Street, Central","lat":22.2803124,"lng":114.1555737,"rating":4.6,"types":["bar","cafe","restaurant","food","point_of_interest","establishment"],"district":""},{"name":"Chan's Cafe","address":"Shop E, G/F, 38 Tai Yuen Street, Wan Chai","lat":22.2748068,"lng":114.1733125,"rating":5,"types":["cafe","food","point_of_interest","establishment"],"district":""},{"name":"Pacific Coffee","address":"Shop 203, 2/F, 1-3 Pedder Street, Central","lat":22.2813119,"lng":114.1574409,"rating":3.9,"types":["cafe","store","food","point_of_interest","establishment"],"district":""},{"name":"The Coffee Academïcs (Johnston Road)","address":"Newman House, 35-45 Johnston Road, Wan Chai","lat":22.2768681,"lng":114.1709279,"rating":4,"types":["cafe","store","restaurant","food","point_of_interest","establishment"],"district":""},{"name":"BiteUnite Cooking Classes Hong Kong","address":"G/F, 15 Lung On Street, Wan Chai","lat":22.2729706,"lng":114.1741679,"rating":4.8,"types":["cafe","food","point_of_interest","establishment"],"district":""},{"name":"Indicolite Restaurant","address":"No. 246, 246 Queen's Road East, Wan Chai","lat":22.2747831,"lng":114.1732827,"rating":3.9,"types":["restaurant","meal_takeaway","cafe","store","food","point_of_interest","establishment"],"district":""},{"name":"Maison Kayser (Wanchai)","address":"248 Queen's Road East, Wan Chai","lat":22.2745428,"lng":114.1735134,"rating":4,"types":["bakery","cafe","store","food","point_of_interest","establishment"],"district":""},{"name":"nodi (Chater House)","address":"Ground floor, 8 Connaught Road Central, Central","lat":22.2820791,"lng":114.1584692,"rating":4.1,"types":["cafe","store","food","point_of_interest","establishment"],"district":""},{"name":"Starbucks","address":"Shop on 1/F, 39 Queen's Road Central, Central","lat":22.2826268,"lng":114.1562587,"rating":4,"types":["cafe","store","food","point_of_interest","establishment"],"district":""},{"name":"Coco Espresso","address":"地下D舖, 50 Stanley Street, Central","lat":22.2827845,"lng":114.1550599,"rating":4.4,"types":["cafe","store","restaurant","food","point_of_interest","establishment"],"district":""},{"name":"Cupping Room (Central) - We moved to 49 Hollywood Road","address":"1st Floor, 49 hollywood road, Lyndhurst Terrace, Central","lat":22.28274,"lng":114.15311,"rating":4,"types":["cafe","store","food","point_of_interest","establishment"],"district":""},{"name":"Starbucks","address":"地下7號舖, The Peak Galleria, 118號 Peak Road","lat":22.2706014,"lng":114.1496652,"rating":3.2,"types":["cafe","store","food","point_of_interest","establishment"],"district":""},{"name":"Bar Q88","address":"Lobby Level, JW Marriott Hotel Hong Kong, Pacific Place, 88 Queensway, Admiralty","lat":22.2774985,"lng":114.1663225,"rating":4.3,"types":["bar","lodging","food","point_of_interest","establishment"],"district":""},{"name":"Pacific Bar","address":"Level 8, 88 Queensway, Admiralty","lat":22.2767426,"lng":114.1652815,"rating":4.1,"types":["bar","point_of_interest","establishment"],"district":""},{"name":"Racks City","address":"2/f, Winning Centre, 46-48 Wyndham Street, Central","lat":22.2802412,"lng":114.1548724,"rating":3.9,"types":["bar","night_club","point_of_interest","establishment"],"district":""},{"name":"Tai Lung Fung","address":"The Archive, 5-9 Hing Wan Street, Wan Chai","lat":22.273684,"lng":114.1741772,"rating":4.4,"types":["bar","restaurant","food","point_of_interest","establishment"],"district":""},{"name":"LinQ Bar","address":"35 Pottinger Street, Central","lat":22.282312,"lng":114.154726,"rating":4.3,"types":["bar","point_of_interest","establishment"],"district":""},{"name":"The Chinnery","address":"1/F, Mandarin Oriental Hong Kong, 5 Connaught Road Central, Central","lat":22.281889,"lng":114.159491,"rating":4.5,"types":["night_club","bar","restaurant","food","point_of_interest","establishment"],"district":""},{"name":"Rockschool","address":"23 Luard Road, Wan Chai","lat":22.2787369,"lng":114.171513,"rating":3,"types":["bar","point_of_interest","establishment"],"district":""},{"name":"Le Boudoir","address":"Basement, 65 Wyndham Street, Central","lat":22.2814875,"lng":114.1549665,"rating":4.5,"types":["bar","point_of_interest","establishment"],"district":""},{"name":"The Krug Room","address":"5 Connaught Road Central, Central","lat":22.281932,"lng":114.159363,"rating":4.7,"types":["night_club","bar","restaurant","food","point_of_interest","establishment"],"district":""},{"name":"Abergedie","address":"Abergeldie, 52號 Plantation Road, The Peak","lat":22.269567,"lng":114.157667,"rating":5,"types":["local_government_office","point_of_interest","establishment"],"district":""},{"name":"The Belvedere BLK 55","address":"55號 Plantation Road, The Peak","lat":22.269326,"lng":114.156639,"rating":3.2,"types":["point_of_interest","establishment"],"district":""},{"name":"Wellcome (Watford Road, Victoria Peak)","address":"2 Watford Road, The Peak","lat":22.2655783,"lng":114.1614458,"rating":3.8,"types":["supermarket","grocery_or_supermarket","food","point_of_interest","store","establishment"],"district":""},{"name":"GSIS Peak Campus Reception, Lower Building","address":"22 Guildford Road, The Peak","lat":22.2652948,"lng":114.1605645,"rating":null,"types":["school","point_of_interest","establishment"],"district":""},{"name":"Growth Master Enterprises Ltd","address":"紫菀居","lat":22.267782,"lng":114.157852,"rating":null,"types":["point_of_interest","establishment"],"district":""},{"name":"Au's The Long Life Plastic & Metal Manufacturing Ltd","address":"紫菀居","lat":22.267782,"lng":114.157852,"rating":null,"types":["point_of_interest","establishment"],"district":""},{"name":"PKL Consultants Ltd","address":"紫菀居","lat":22.2678048,"lng":114.1578441,"rating":null,"types":["point_of_interest","establishment"],"district":""},{"name":"The Coronet Paper Co Ltd","address":"紫菀居","lat":22.2678048,"lng":114.1578441,"rating":null,"types":["point_of_interest","establishment"],"district":""},{"name":"Concordia Publishing Services","address":"紫棠居","lat":22.2678877,"lng":114.1579668,"rating":null,"types":["church","place_of_worship","point_of_interest","establishment"],"district":""},{"name":"German Swiss International School","address":"German Swiss International School (The Peak Campus) Upper Building, 11 Guildford Road, The Peak","lat":22.265971,"lng":114.1615628,"rating":null,"types":["school","point_of_interest","establishment"],"district":""},{"name":"Victoria Flats","address":"17號 Barker Road, The Peak","lat":22.27031999999999,"lng":114.158735,"rating":3.8,"types":["point_of_interest","establishment"],"district":""},{"name":"SINOPEC Peak Road","address":"Peak Road, Central","lat":22.2683824,"lng":114.1629089,"rating":3.8,"types":["gas_station","point_of_interest","establishment"],"district":""},{"name":"Craigmin Road; Peak Road","address":"Hong Kong","lat":22.26655,"lng":114.1599,"rating":null,"types":["transit_station","point_of_interest","establishment"],"district":""},{"name":"Craigmin Road; Peak Road","address":"Hong Kong","lat":22.266626,"lng":114.15989,"rating":null,"types":["transit_station","point_of_interest","establishment"],"district":""},{"name":"山頂","address":"Peak Road, The Peak","lat":22.26659769999999,"lng":114.1601006,"rating":null,"types":["gas_station","point_of_interest","establishment"],"district":""},{"name":"Waste Recycling Point","address":"Fung Shing Villa之間行人路, 消防栓側, 1516號 Peak Road","lat":22.267166,"lng":114.160438,"rating":null,"types":["point_of_interest","establishment"],"district":""},{"name":"Guildford Road Rest Garden","address":"Guildford Road, The Peak","lat":22.2649349,"lng":114.1609078,"rating":4.8,"types":["park","point_of_interest","establishment"],"district":""},{"name":"Leap Holdings (Asia) Limited","address":"Room 1811, Eastern Harbour Center, 28 Hoi Chak Street, Quarry Bay","lat":22.267782,"lng":114.157852,"rating":null,"types":["point_of_interest","establishment"],"district":""},{"name":"WONG, CHUN WING Doctors","address":"Department of Surgery, Pamela Youde Nethersole Eastern Hospital, Chai Wan","lat":22.267782,"lng":114.157852,"rating":null,"types":["point_of_interest","establishment"],"district":""},{"name":"Hong Kong Society of Nuclear Medicine","address":"紫菀居","lat":22.267782,"lng":114.157852,"rating":5,"types":["point_of_interest","establishment"],"district":""},{"name":"Chief Pharmacist's Office, Hospital Authority","address":"紫菀居","lat":22.267782,"lng":114.157852,"rating":null,"types":["point_of_interest","establishment"],"district":""},{"name":"Wallon Cotton Ltd","address":"紫菀居","lat":22.267782,"lng":114.157852,"rating":null,"types":["point_of_interest","establishment"],"district":""},{"name":"Hop Shing Rattan Factory","address":"紫棠居","lat":22.267854,"lng":114.157979,"rating":null,"types":["point_of_interest","establishment"],"district":""},{"name":"Kwan, Yin Wah Elaine Doctors","address":"紫菀居","lat":22.2678048,"lng":114.1578441,"rating":null,"types":["doctor","health","point_of_interest","establishment"],"district":""},{"name":"Young, Hai Ka Betty Doctors","address":"紫菀居","lat":22.2678048,"lng":114.1578441,"rating":null,"types":["doctor","health","point_of_interest","establishment"],"district":""},{"name":"Tsang, Wai Yin Kevin Doctors","address":"紫菀居","lat":22.2678048,"lng":114.1578441,"rating":null,"types":["doctor","health","point_of_interest","establishment"],"district":""},{"name":"Dr. Ching Chin Pang Elvin","address":"紫菀居","lat":22.2678048,"lng":114.1578441,"rating":null,"types":["doctor","health","point_of_interest","establishment"],"district":""},{"name":"Lau, Yuen Fun Emmy Doctors","address":"紫菀居","lat":22.2678048,"lng":114.1578441,"rating":null,"types":["doctor","health","point_of_interest","establishment"],"district":""},{"name":"Dr. Ho Kai Kit","address":"紫菀居","lat":22.2678048,"lng":114.1578441,"rating":null,"types":["doctor","health","point_of_interest","establishment"],"district":""},{"name":"Cheuk Nang Outlook Aster","address":"Cheuk Nang Lookout Aster, 30 Severn Road, The Peak","lat":22.267851,"lng":114.157835,"rating":null,"types":["point_of_interest","establishment"],"district":""},{"name":"Parking Lot","address":"The Peak","lat":22.265501,"lng":114.161282,"rating":5,"types":["parking","point_of_interest","establishment"],"district":""},{"name":"Watford Road Shopping Centre Car Park","address":"The Peak","lat":22.265586,"lng":114.161388,"rating":null,"types":["parking","point_of_interest","establishment"],"district":""},{"name":"36 Severn Road","address":"36號 Severn Road, The Peak","lat":22.267819,"lng":114.157458,"rating":5,"types":["point_of_interest","establishment"],"district":""},{"name":"Midland Realty","address":"地下1號舖, 牛奶公司購物中心, Watford Road, The Peak","lat":22.2655783,"lng":114.1614458,"rating":null,"types":["point_of_interest","establishment"],"district":""},{"name":"Dairy Farm Guildford Road Shopping Centre","address":"2, 4 Watford Road, The Peak","lat":22.2655783,"lng":114.1614458,"rating":3.8,"types":["supermarket","shopping_mall","grocery_or_supermarket","store","food","point_of_interest","establishment"],"district":""},{"name":"Xiamen HengDaTong Technology Co.,Ltd","address":"NA, The Peak","lat":22.2632478,"lng":114.1587983,"rating":null,"types":["point_of_interest","establishment"],"district":""},{"name":"深圳市中履鞋业有限公司","address":"福州花园, 山頂","lat":22.2632478,"lng":114.1587983,"rating":null,"types":["point_of_interest","establishment"],"district":""},{"name":"Csa Academy","address":"The Peak","lat":22.2632478,"lng":114.1587983,"rating":5,"types":["gym","health","point_of_interest","establishment"],"district":""},{"name":"Arome","address":"Chengtu Road, Aberdeen","lat":22.248331,"lng":114.154874,"rating":3.5,"types":["bakery","food","store","point_of_interest","establishment"],"district":""},{"name":"Maxim's Cakes","address":"香港仔成都道38號利港中心23及24號舖","lat":22.2488892,"lng":114.1549706,"rating":3.3,"types":["bakery","food","store","point_of_interest","establishment"],"district":""},{"name":"Saint Honore Cake Shop","address":"地舖, 11號 東勝道, 香港仔","lat":22.2484677,"lng":114.1551681,"rating":3.3,"types":["bakery","food","store","point_of_interest","establishment"],"district":""},{"name":"Taipan Bread & Cakes","address":"香港仔中心第4期5���地舖, Aberdeen","lat":22.2489007,"lng":114.1542611,"rating":3.4,"types":["bakery","food","store","point_of_interest","establishment"],"district":""},{"name":"MARKS & SPENCER FOOD Queen's Road East","address":"38 Queen's Road East, Admiralty","lat":22.2772266,"lng":114.1685614,"rating":4.2,"types":["convenience_store","florist","bakery","grocery_or_supermarket","restaurant","food","store","point_of_interest","establishment"],"district":""},{"name":"New Life Gourmet","address":"68 Yue Kwong Road, Aberdeen","lat":22.2500879,"lng":114.1573334,"rating":4,"types":["bakery","food","store","point_of_interest","establishment"],"district":""},{"name":"Saint Honore Cake Shop","address":"Shop 10, G/F, Fairview Height Block 1, 1 Seymour Road, Mid-Levels","lat":22.2800513,"lng":114.1508206,"rating":4.2,"types":["bakery","food","point_of_interest","store","establishment"],"district":""},{"name":"Conte de cookie","address":"號 地下 b4 舖, 澳洲大廈, 7-9 盧押道, 灣仔","lat":22.2771181,"lng":114.1714021,"rating":4.7,"types":["bakery","food","point_of_interest","store","establishment"],"district":""},{"name":"Wing Wah Cake Shop","address":"Shop B34 - B35, 200 Lee Tung Street, Wan Chai","lat":22.2759345,"lng":114.1725411,"rating":4.2,"types":["bakery","food","point_of_interest","store","establishment"],"district":""},{"name":"Tai Tung Bakery","address":"利東街一號, 地庫 樓B02-B03舖, Wan Chai","lat":22.2761758,"lng":114.1725216,"rating":3.8,"types":["bakery","food","point_of_interest","store","establishment"],"district":""},{"name":"Kee Wah Bakery (Aberdeen)","address":"G/F, 38 成都道, 香港仔","lat":22.2490129,"lng":114.1548609,"rating":3.9,"types":["bakery","food","point_of_interest","store","establishment"],"district":""},{"name":"夏威夷餅店","address":"34 Cross Street, Wan Chai","lat":22.2757117,"lng":114.1739708,"rating":null,"types":["bakery","food","point_of_interest","store","establishment"],"district":""},{"name":"Bread, Expresso &","address":"1/F, The Peak Galleria, 18 Peak Road, The Peak","lat":22.270319,"lng":114.149977,"rating":null,"types":["bakery","food","point_of_interest","store","establishment"],"district":""},{"name":"Butter (The Peak)","address":"Shop G08 G/F, The Peak Galleria, 118 Peak Road, The Peak","lat":22.2703965,"lng":114.1499227,"rating":4.4,"types":["bakery","food","point_of_interest","store","establishment"],"district":""},{"name":"Tai Cheong Bakery","address":"The Peak 山頂道118號山頂廣場2樓19號鋪","lat":22.2703427,"lng":114.1497785,"rating":4.4,"types":["bakery","food","point_of_interest","store","establishment"],"district":""},{"name":"Bakehouse","address":"G08, The Peak Tower, 128 Peak Road, Mid-Levels","lat":22.2711683,"lng":114.1503183,"rating":4.4,"types":["bakery","food","point_of_interest","store","establishment"],"district":""},{"name":"Lady M Cake Boutique (Pacific Place)","address":"2L, Level, Area, 2 Pacific Place Drive, Admiralty","lat":22.277266,"lng":114.1648879,"rating":3.1,"types":["bakery","food","point_of_interest","store","establishment"],"district":""},{"name":"Cova Pasticceria & Caffetteria","address":"Shop 250, Level 2, Pacific Place, 88 Queensway, Admiralty","lat":22.2776447,"lng":114.1653936,"rating":4.7,"types":["bakery","cafe","restaurant","food","point_of_interest","store","establishment"],"district":""},{"name":"Butter Cookies","address":"Shop 007 LG1, Pacific Place, 88 Queensway, Admiralty","lat":22.277509,"lng":114.166341,"rating":4.2,"types":["bakery","food","point_of_interest","store","establishment"],"district":""},{"name":"The Cakery (Pacific Place)","address":"G1, Great Food Hall, Two Pacific Place, 88 Queensway, Admiralty","lat":22.277509,"lng":114.166341,"rating":2.5,"types":["bakery","food","point_of_interest","store","establishment"],"district":""},{"name":"Ruby Tuesday (Causeway Bay)","address":"2/F, Plaza 2000, 2-4 Russell Street, Causeway Bay","lat":22.2784577,"lng":114.1814471,"rating":3.9,"types":["restaurant","food","point_of_interest","establishment"],"district":""},{"name":"Burgeroom (Causeway Bay)","address":"Towning Mansion, Paterson Street, Causeway Bay","lat":22.2819037,"lng":114.1852864,"rating":3.9,"types":["restaurant","food","point_of_interest","establishment"],"district":""},{"name":"Zhejiang Heen","address":"Floor 1, 興業大廈, 3, 浙江, 300-306號 Lockhart Road, Wan Chai","lat":22.278584,"lng":114.1775782,"rating":4.3,"types":["restaurant","food","point_of_interest","establishment"],"district":""},{"name":"Crystal Jade (Times Square)","address":"時代廣場B221A號舖, Matheson Street, Causeway Bay","lat":22.2780379,"lng":114.1820545,"rating":3.7,"types":["restaurant","food","point_of_interest","establishment"],"district":""},{"name":"Tai Ping Koon Restaurant","address":"6 Pak Sha Road, Causeway Bay","lat":22.27889,"lng":114.1838938,"rating":4,"types":["restaurant","food","point_of_interest","establishment"],"district":""},{"name":"Megan's Kitchen","address":"5/F, HK Hong Kong Island, 165-171 Wan Chai Road, Wan Chai","lat":22.2768993,"lng":114.1770513,"rating":4.1,"types":["restaurant","food","point_of_interest","establishment"],"district":""},{"name":"Din Tai Fung (Causeway Bay)","address":"地下3-11舖, 怡和街68號地下3-11舖, 68號 Yee Wo Street, Causeway Bay","lat":22.2793867,"lng":114.1863917,"rating":4.2,"types":["restaurant","food","point_of_interest","establishment"],"district":""},{"name":"Hong Kong Lao Shang Hai Restaurant Ltd.","address":"英皇集團中心1樓, 288號 Hennessy Road, Wan Chai","lat":22.2775389,"lng":114.1768655,"rating":4,"types":["restaurant","food","point_of_interest","establishment"],"district":""},{"name":"Mira Moon Hotel","address":"388 Jaffe Road, Causeway Bay","lat":22.2798064,"lng":114.17949,"rating":4.4,"types":["lodging","restaurant","food","point_of_interest","establishment"],"district":""},{"name":"Brunch Club & Supper (Causeway Bay)","address":"1st Floor, 13 Leighton Road, Causeway Bay","lat":22.2770251,"lng":114.1816605,"rating":4.1,"types":["restaurant","food","point_of_interest","establishment"],"district":""},{"name":"Tung Po Kitchen","address":"2樓, 銀河大廈, 303號 謝斐道, 灣仔","lat":22.2795199,"lng":114.1779216,"rating":3.9,"types":["restaurant","food","point_of_interest","establishment"],"district":""},{"name":"富臨飯店 Forum Restaurant","address":"255-257 Gloucester Road, Causeway Bay","lat":22.2813578,"lng":114.1822993,"rating":4.2,"types":["restaurant","food","point_of_interest","establishment"],"district":""},{"name":"Amigo","address":"79A Wong Nai Chung Road, Happy Valley","lat":22.2718433,"lng":114.1847502,"rating":4.5,"types":["restaurant","food","point_of_interest","establishment"],"district":""},{"name":"Dynasty","address":"Hong Kong Convention And Exhibition Centre, 1 Harbour Road, Wan Chai","lat":22.28151399999999,"lng":114.1735622,"rating":4.4,"types":["restaurant","food","point_of_interest","establishment"],"district":""},{"name":"FRITES Belgium on Tap (Wan Chai)","address":"Shop 6, 1/F Causeway Centre, 28 Harbour Road, 28 Harbour Road, Wan Chai","lat":22.2806478,"lng":114.1762314,"rating":4,"types":["restaurant","food","point_of_interest","establishment"],"district":""},{"name":"ALADIN MESS","address":"2樓, 富興大廈, 2nd Floor 60, 60號 Russell Street, Causeway Bay","lat":22.2792385,"lng":114.1832284,"rating":4.1,"types":["restaurant","food","point_of_interest","establishment"],"district":""},{"name":"18 Grams Speciality Coffee","address":"Hoi To Court, 15-27號 Cannon Street, Causeway Bay","lat":22.2815629,"lng":114.1835415,"rating":4.1,"types":["cafe","store","restaurant","food","point_of_interest","establishment"],"district":""},{"name":"Cafe S","address":"謝斐道508號2室1402, 555 Hennessy Road, Causeway Bay","lat":22.28032739999999,"lng":114.183989,"rating":null,"types":["cafe","food","point_of_interest","establishment"],"district":""},{"name":"La-Serene Café","address":"555 Hennessy Road, Causeway Bay","lat":22.2805209,"lng":114.1841281,"rating":3.6,"types":["cafe","food","point_of_interest","establishment"],"district":""},{"name":"Starbucks (Times Square)","address":"Kiosk H, 9/F, Times Square, 1 Matheson Street, Causeway Bay","lat":22.2783309,"lng":114.1820944,"rating":3.8,"types":["cafe","store","food","point_of_interest","establishment"],"district":""},{"name":"Hobby Point Cafe","address":"4樓, 53號 Percival Street, Causeway Bay","lat":22.2795461,"lng":114.1827763,"rating":null,"types":["cafe","food","point_of_interest","establishment"],"district":""},{"name":"UCC Coffee Shop (Causeway Bay Plaza)","address":"銅鑼灣 軒 尼 軒 道 489 號 銅鑼灣 廣場 一 期 2/F, Causeway Bay Plaza 489, 1 Hennessy Road, Causeway Bay","lat":22.28013829999999,"lng":114.1827722,"rating":3.6,"types":["cafe","restaurant","food","point_of_interest","establishment"],"district":""},{"name":"Van Gogh Kitchen","address":"2樓B室, Shing Wah Mansion, 451-457號 軒尼詩道, 鵝頸","lat":22.27986229999999,"lng":114.1819046,"rating":4.4,"types":["art_gallery","cafe","bar","restaurant","food","point_of_interest","establishment"],"district":""},{"name":"Cafe Rivoli","address":"1樓, Regal Hongkong Hotel, 88號 Yee Wo Street, Causeway Bay","lat":22.279148,"lng":114.1868295,"rating":3.5,"types":["cafe","restaurant","food","point_of_interest","store","establishment"],"district":""},{"name":"Billidart Restaurant & Bar","address":"6 Tonnochy Road, Wan Chai","lat":22.2793033,"lng":114.1780468,"rating":3.4,"types":["bar","point_of_interest","establishment"],"district":""},{"name":"Banker Bar & Lounge","address":"27/F, 523-527 Hennessy Road, Causeway Bay","lat":22.2803108,"lng":114.1837624,"rating":4.4,"types":["bar","point_of_interest","establishment"],"district":""},{"name":"Executive Bar","address":"27/F, 3 Yiu Wa Street, Causeway Bay","lat":22.2776815,"lng":114.1821836,"rating":4.5,"types":["bar","point_of_interest","establishment"],"district":""},{"name":"Sportsman's Bar","address":"Hong Kong Football Club, 3 Sports Road, Happy Valley","lat":22.2753609,"lng":114.1821136,"rating":4.2,"types":["bar","point_of_interest","establishment"],"district":""},{"name":"Happy Valley Bar & Grill","address":"38 Wong Nai Chung Road, Happy Valley","lat":22.2700532,"lng":114.1849298,"rating":4.2,"types":["bar","restaurant","food","point_of_interest","establishment"],"district":""},{"name":"Renaissance Hong Kong Harbour View Hotel","address":"會展廣場, Harbour Road, Wan Chai","lat":22.281461,"lng":114.1738211,"rating":4.2,"types":["lodging","point_of_interest","establishment"],"district":""},{"name":"Novotel Century Hong Kong","address":"238 Jaffe Road, Wan Chai","lat":22.2788043,"lng":114.176386,"rating":4.2,"types":["lodging","point_of_interest","establishment"],"district":""},{"name":"Wharney Hotel","address":"57-73號 Lockhart Road, Wan Chai","lat":22.2783586,"lng":114.1711064,"rating":3.9,"types":["lodging","point_of_interest","establishment"],"district":""},{"name":"The Fleming","address":"The Fleming, 41 Fleming Road, Wan Chai","lat":22.2789761,"lng":114.1747987,"rating":4.5,"types":["lodging","point_of_interest","establishment"],"district":""},{"name":"Gloucester Luk Kwok Hong Kong","address":"72 Gloucester Road, Wan Chai","lat":22.278865,"lng":114.172354,"rating":3.9,"types":["lodging","point_of_interest","establishment"],"district":""},{"name":"iclub Wan Chai Hotel 富薈灣仔酒店","address":"211 Johnston Road, Wan Chai","lat":22.277444,"lng":114.175878,"rating":3.8,"types":["lodging","point_of_interest","establishment"],"district":""},{"name":"Empire Hotel Hong Kong Wan Chai 香港灣仔皇悅酒店","address":"33 Hennessy Road, Wan Chai","lat":22.2778068,"lng":114.1701009,"rating":3.8,"types":["lodging","point_of_interest","establishment"],"district":""},{"name":"V Wanchai Serviced Apartments","address":"180 Jaffe Road, Wan Chai","lat":22.2787497,"lng":114.1750022,"rating":3.5,"types":["lodging","point_of_interest","establishment"],"district":""},{"name":"Brighton Hotel Hong Kong","address":"128 Lockhart Road, Wan Chai","lat":22.277978,"lng":114.172647,"rating":3.9,"types":["lodging","point_of_interest","establishment"],"district":""},{"name":"Kew Green Hotel Wanchai","address":"41-49 Hennessy Road, Wan Chai","lat":22.277852,"lng":114.170562,"rating":4,"types":["lodging","point_of_interest","establishment"],"district":""},{"name":"Check Inn HK","address":"2/F, Kwong Wah Mansion, 269 Hennessy Road, Wan Chai","lat":22.2782412,"lng":114.1769881,"rating":4,"types":["lodging","point_of_interest","establishment"],"district":""},{"name":"Grand Hyatt Hong Kong","address":"1 Harbour Road, Wan Chai","lat":22.2814073,"lng":114.1721379,"rating":4.5,"types":["lodging","point_of_interest","establishment"],"district":""},{"name":"Wanchai 88 Hotel","address":"139 Thomson Road, Wan Chai","lat":22.2773404,"lng":114.175093,"rating":3.9,"types":["lodging","point_of_interest","establishment"],"district":""},{"name":"Wooloomooloo Steakhouse (Wan Chai)","address":"Main entrance on, 31/F The Hennessy 256 Hennessy Road, 213 Johnston Road, Wan Chai","lat":22.2776914,"lng":114.1761051,"rating":4.3,"types":["restaurant","food","point_of_interest","establishment"],"district":""},{"name":"Liza Veggies","address":"2樓, 105-111號 Thomson Road, Wan Chai","lat":22.2772948,"lng":114.1739859,"rating":4.2,"types":["restaurant","food","point_of_interest","establishment"],"district":""},{"name":"Congress Plus","address":"Hong Kong Convention And Exhibition Centre, 1 Harbour Road, Wan Chai","lat":22.2816025,"lng":114.1737284,"rating":4.2,"types":["restaurant","food","point_of_interest","establishment"],"district":""},{"name":"The Grill at Grand Hyatt Hong Kong","address":"11th Floor, Grand Hyatt Hong Kong, 1 Harbour Road, Wan Chai","lat":22.2814672,"lng":114.1731727,"rating":4,"types":["restaurant","food","point_of_interest","establishment"],"district":""},{"name":"Grissini","address":"2nd Floor, Grand Hyatt Hong Kong, 1 Harbour Road, Wan Chai","lat":22.2814448,"lng":114.1721267,"rating":4.4,"types":["restaurant","food","point_of_interest","establishment"],"district":""},{"name":"Hong Kong Convention and Exhibition Centre","address":"1號 Expo Drive, Wan Chai","lat":22.2833754,"lng":114.1731385,"rating":4.3,"types":["point_of_interest","establishment"],"district":""},{"name":"Istanbul Express Turkish Restaurant","address":"G/F, 66 Lockhart Road, Wan Chai","lat":22.278067,"lng":114.171097,"rating":4.1,"types":["restaurant","food","point_of_interest","establishment"],"district":""},{"name":"Yiu Fung Store","address":"英皇集團中心地下09號鋪, Wan Chai","lat":22.2772354,"lng":114.1769654,"rating":3.6,"types":["grocery_or_supermarket","store","food","point_of_interest","establishment"],"district":""},{"name":"TIFFIN","address":"Mezzanine Floor, Grand Hyatt Hong Kong, 1 Harbour Road, 1 Harbour Road, Wan Chai","lat":22.2813027,"lng":114.1721364,"rating":4.2,"types":["restaurant","food","point_of_interest","establishment"],"district":""},{"name":"Sportful Garden Restaurant","address":"1, 2樓, 1號 Fleming Road, Wan Chai","lat":22.2773331,"lng":114.1746684,"rating":3.4,"types":["restaurant","food","point_of_interest","establishment"],"district":""},{"name":"Cova Pasticceria & Confetteria Lee Gardens Branch","address":"Shop 101-103, The Lee Gardens, 1/F Hysan Avenue, Causeway Bay","lat":22.27846689999999,"lng":114.1847833,"rating":3.8,"types":["bakery","food","point_of_interest","store","establishment"],"district":""},{"name":"Kisses Cupcakes","address":"280 Gloucester Road, The World Trade Centre, Shop C8A on Podium 1, Causeway Bay","lat":22.2815279,"lng":114.1842189,"rating":3.2,"types":["bakery","food","point_of_interest","store","establishment"],"district":""},{"name":"Cookies Quartet (Canal Road East)","address":"地下1號商舖, 人和悅大廈港鐵銅鑼灣站, A出口，時代廣場出口左轉羅素街，後右轉堅拿道前行約100米, 432-436號 Hennessy Road, Causeway Bay","lat":22.2791402,"lng":114.181498,"rating":3.9,"types":["bakery","food","point_of_interest","store","establishment"],"district":""},{"name":"Donq","address":"555 Hennessy Road, Causeway Bay","lat":22.2803758,"lng":114.1846575,"rating":4,"types":["bakery","food","point_of_interest","store","establishment"],"district":""},{"name":"Danish Bakery","address":"地下, 禮信大廈, 106號 禮頓道, 銅鑼灣","lat":22.2777971,"lng":114.1862033,"rating":4.1,"types":["bakery","food","point_of_interest","store","establishment"],"district":""},{"name":"Häagen-Dazs","address":"Shop 212,2 / F, 311 Gloucester Road, Causeway Bay","lat":22.28065299999999,"lng":114.1866469,"rating":4,"types":["bakery","food","point_of_interest","store","establishment"],"district":""},{"name":"Patisserie Tony Wong","address":"G/F, Coasia Building, 496-498 Lockhart Road 地鐵站C2出口, Causeway Bay","lat":22.2805495,"lng":114.1830362,"rating":4.5,"types":["bakery","food","point_of_interest","store","establishment"],"district":""},{"name":"Mini One","address":"555 Hennessy Road, Causeway Bay","lat":22.2803386,"lng":114.1846238,"rating":3.9,"types":["bakery","food","point_of_interest","store","establishment"],"district":""},{"name":"COVA Pasticceria & Confetteria (WWWTC)","address":"Shop No.G08, G/F, wwwtc mall, 280 Gloucester Road, Causeway Bay","lat":22.2819587,"lng":114.1841699,"rating":3.7,"types":["bakery","food","store","point_of_interest","establishment"],"district":""},{"name":"Mimosa Patisserie","address":"Shop 36N, Golden Court, 22-52 Tin Hau, Electric Road, Causeway Bay","lat":22.2833643,"lng":114.1919177,"rating":3.2,"types":["bakery","food","store","point_of_interest","establishment"],"district":""},{"name":"Italian Tomato","address":"555 Hennessy Road, Causeway Bay","lat":22.2804533,"lng":114.1845996,"rating":3.3,"types":["bakery","restaurant","food","store","point_of_interest","establishment"],"district":""},{"name":"Hon Takasagoya","address":"SOGO, B2/F, 555 Hennessy Road, Causeway Bay","lat":22.2804746,"lng":114.1845288,"rating":3.9,"types":["bakery","food","store","point_of_interest","establishment"],"district":""},{"name":"La Rose Noire Bakery","address":"惠康超級市場内 Wellcome Supermarket, 25-29號 Great George Street, Causeway Bay","lat":22.2805161,"lng":114.1858371,"rating":4,"types":["bakery","food","store","point_of_interest","establishment"],"district":""},{"name":"Hang Heung","address":"伊榮街21號崇光百貨 B2, 555號 軒尼詩道, 銅鑼灣","lat":22.2805426,"lng":114.1845475,"rating":4.3,"types":["bakery","food","store","point_of_interest","establishment"],"district":""},{"name":"Kee Wah Bakery (Lee Garden Road)","address":"33號舖, Lee Garden Road, Causeway Bay","lat":22.2790433,"lng":114.1833676,"rating":4.1,"types":["bakery","food","store","point_of_interest","establishment"],"district":""},{"name":"Cake 2","address":"Victoria Court, 2A Tsing Fung Street, North Point","lat":22.2846753,"lng":114.1913303,"rating":3.7,"types":["bakery","food","store","point_of_interest","establishment"],"district":""},{"name":"Kee Wah Bakery (SOGO Causeway Bay)","address":"Store 51, Level B2, Sogo Department Store, 555 軒尼詩道, 銅鑼灣","lat":22.2804155,"lng":114.1843429,"rating":3.9,"types":["bakery","food","store","point_of_interest","establishment"],"district":""},{"name":"JEN Hong Kong by Shangri-La","address":"508號 Queen's Road West, Sai Wan","lat":22.2858489,"lng":114.135021,"rating":4.2,"types":["restaurant","food","lodging","point_of_interest","establishment"],"district":""},{"name":"The Box","address":"德輔道中21-23號4層4010","lat":22.285002,"lng":114.156782,"rating":5,"types":["restaurant","food","point_of_interest","establishment"],"district":""},{"name":"Sabor Private Kitchen","address":"4th Floor, 1-3號 永樂街, 上環","lat":22.2856357,"lng":114.153843,"rating":4,"types":["restaurant","food","point_of_interest","establishment"],"district":""},{"name":"Cuisine Cuisine (ifc) 國金軒 (中環)","address":"Phase 2, IFC Mall, Shop 3101-07, Level 3, 8 Finance Street, Central","lat":22.28537859999999,"lng":114.1592064,"rating":4.1,"types":["restaurant","food","point_of_interest","establishment"],"district":""},{"name":"Green Darts Cafe & Bar","address":"樓B室, 87 泰達大廈, 1 Wing Lok Street, Sheung Wan","lat":22.2859318,"lng":114.1519983,"rating":4.5,"types":["cafe","food","point_of_interest","establishment"],"district":""},{"name":"同樂堂","address":"Hong Kong","lat":22.2847088,"lng":114.1508641,"rating":4,"types":["cafe","food","point_of_interest","establishment"],"district":""},{"name":"意菲咖啡室","address":"上環永樂街1-3號世瑛大廈103室","lat":22.2837878,"lng":114.1529326,"rating":4,"types":["cafe","food","point_of_interest","establishment"],"district":""},{"name":"海南咖喱","address":"Shek Tong Tsui","lat":22.2863014,"lng":114.1338828,"rating":4.2,"types":["cafe","food","point_of_interest","establishment"],"district":""},{"name":"Shu","address":"30號 Queen Street, Sheung Wan","lat":22.2880181,"lng":114.1470979,"rating":4.1,"types":["cafe","food","store","point_of_interest","establishment"],"district":""},{"name":"Halfway Coffee (Hoi On Cafe)","address":"G/F, 17 Connaught Road West, Sai Ying Pun","lat":22.2877596,"lng":114.1494458,"rating":4.2,"types":["cafe","food","store","point_of_interest","establishment"],"district":""},