{
  "totalFound": 3542,
  "places": [
    {
      "placeId": "ChIJUUoEMlwABDQRf9H0ooj1FVY",
      "name": "The Harbourview",
      "address": "2/F, The Harbourview, 4 Harbour Road, Wan Chai",
      "lat": 22.280174,
      "lng": 114.171111,
      "rating": 3.8,
      "userRatingsTotal": 2233,
      "priceLevel": null,
      "types": [
        "lodging",
        "restaurant",
        "food",
        "point_of_interest",
        "establishment"
      ],
      "businessStatus": "OPERATIONAL",
      "openNow": null
    },
    {
      "placeId": "ChIJ5wqYM3sABDQReBZuul1u-KU",
      "name": "Yung Kee Restaurant",
      "address": "Yung Kee Building, 32-40 Wellington Street, Central",
      "lat": 22.2815799,
      "lng": 114.1555671,
      "rating": 3.8,
      "userRatingsTotal": 3343,
      "priceLevel": 4,
      "types": [
        "restaurant",
        "food",
        "point_of_interest",
        "establishment"
      ],
      "businessStatus": "OPERATIONAL",
      "openNow": true
    },
    {
      "placeId": "ChIJDz7nS3sABDQR61yScx1M6mA",
      "name": "Luk Yu Tea House",
      "address": "24-26 Stanley Street, Central",
      "lat": 22.2822145,
      "lng": 114.1555586,
      "rating": 3.6,
      "userRatingsTotal": 1783,
      "priceLevel": 3,
      "types": [
        "restaurant",
        "food",
        "point_of_interest",
        "establishment"
      ],
      "businessStatus": "OPERATIONAL",
      "openNow": true
    },
    {
      "placeId": "ChIJIRJT_34ABDQR2dLzWdEdO9E",
      "name": "ABC Kitchen",
      "address": "CF7 1/F, Cooked Food Market, 1 Queen Street, Sheung Wan",
      "lat": 22.2871106,
      "lng": 114.1475296,
      "rating": 4,
      "userRatingsTotal": 361,
      "priceLevel": 2,
      "types": [
        "restaurant",
        "food",
        "point_of_interest",
        "establishment"
      ],
      "businessStatus": "OPERATIONAL",
      "openNow": true
    },
    {
      "placeId": "ChIJQ_72fXwABDQRi2fwULtPNOw",
      "name": "Shugetsu (Central)",
      "address": "5 Gough Street, Central",
      "lat": 22.2841317,
      "lng": 114.1528868,
      "rating": 4.2,
      "userRatingsTotal": 1008,
      "priceLevel": 2,
      "types": [
        "restaurant",
        "food",
        "point_of_interest",
        "establishment"
      ],
      "businessStatus": "OPERATIONAL",
      "openNow": true
    },
    {
      "placeId": "ChIJhcOtY3wABDQR39uGw41EIYM",
      "name": "The Chairman Restaurant",
      "address": "3rd Floor, The Wellington, 198 Wellington Street, Central",
      "lat": 22.2848237,
      "lng": 114.1530091,
      "rating": 4.4,
      "userRatingsTotal": 748,
      "priceLevel": 3,
      "types": [
        "restaurant",
        "food",
        "point_of_interest",
        "establishment"
      ],
      "businessStatus": "OPERATIONAL",
      "openNow": true
    },
    {
      "placeId": "ChIJqX6Q4FwABDQRE5FoTKCffFU",
      "name": "Bo Innovation",
      "address": "1/F, H Code, 45 Pottinger Street, Central",
      "lat": 22.282212,
      "lng": 114.1545565,
      "rating": 4.3,
      "userRatingsTotal": 416,
      "priceLevel": 4,
      "types": [
        "restaurant",
        "food",
        "point_of_interest",
        "establishment"
      ],
      "businessStatus": "OPERATIONAL",
      "openNow": true
    },
    {
      "placeId": "ChIJN03d0XwABDQRThBOJzC9CDw",
      "name": "Two Chinachem Plaza",
      "address": "68 Connaught Road Central, Central",
      "lat": 22.2854598,
      "lng": 114.1553218,
      "rating": 3.4,
      "userRatingsTotal": 345,
      "priceLevel": 2,
      "types": [
        "restaurant",
        "food",
        "point_of_interest",
        "establishment"
      ],
      "businessStatus": "OPERATIONAL",
      "openNow": true
    },
    {
      "placeId": "ChIJfdUO4VwABDQRfyiP8SS7iPA",
      "name": "Fook Lam Moon (Wan Chai)",
      "address": "Newman House, Johnston Road, Wan Chai",
      "lat": 22.2768606,
      "lng": 114.1709297,
      "rating": 4.2,
      "userRatingsTotal": 554,
      "priceLevel": 4,
      "types": [
        "restaurant",
        "food",
        "point_of_interest",
        "establishment"
      ],
      "businessStatus": "OPERATIONAL",
      "openNow": true
    },
    {
      "placeId": "ChIJs3rXimQABDQRJwHqKlmPIbw",
      "name": "Peking Garden (Central)",
      "address": "B1, 7-15 Des Voeux Road Central, Central",
      "lat": 22.281502,
      "lng": 114.158777,
      "rating": 3.9,
      "userRatingsTotal": 511,
      "priceLevel": 2,
      "types": [
        "cafe",
        "bakery",
        "restaurant",
        "food",
        "point_of_interest",
        "store",
        "establishment"
      ],
      "businessStatus": "OPERATIONAL",
      "openNow": true
    },
    {
      "placeId": "ChIJzbDWTWIABDQRhRm8m1oEQbc",
      "name": "Lung King Heen",
      "address": "4F, Four Seasons Hotel Hong Kong, 8 Finance Street, Central",
      "lat": 22.2864276,
      "lng": 114.1570544,
      "rating": 4.5,
      "userRatingsTotal": 961,
      "priceLevel": 4,
      "types": [
        "restaurant",
        "food",
        "point_of_interest",
        "establishment"
      ],
      "businessStatus": "OPERATIONAL",
      "openNow": true
    },
    {
      "placeId": "ChIJK_Ki6GQABDQR6msLLCzNE04",
      "name": "Amber",
      "address": "15 Queen's Road Central, Central",
      "lat": 22.2809925,
      "lng": 114.1577835,
      "rating": 4.5,
      "userRatingsTotal": 626,
      "priceLevel": 4,
      "types": [
        "restaurant",
        "food",
        "point_of_interest",
        "establishment"
      ],
      "businessStatus": "OPERATIONAL",
      "openNow": true
    },
    {
      "placeId": "ChIJU-BOzFwABDQR8ielj6rb7pw",
      "name": "La Maison",
      "address": "Mountain View Mansion, 2-4 Swatow Street, Wan Chai",
      "lat": 22.27541099999999,
      "lng": 114.1716515,
      "rating": 4.2,
      "userRatingsTotal": 158,
      "priceLevel": null,
      "types": [
        "restaurant",
        "food",
        "point_of_interest",
        "establishment"
      ],
      "businessStatus": "OPERATIONAL",
      "openNow": null
    },
    {
      "placeId": "ChIJzbDWTWIABDQRfEbzv7wxi40",
      "name": "Caprice",
      "address": "6F, Four Seasons Hotel Hong Kong, 8 Finance Street, Central",
      "lat": 22.2864047,
      "lng": 114.1570968,
      "rating": 4.5,
      "userRatingsTotal": 608,
      "priceLevel": 4,
      "types": [
        "restaurant",
        "food",
        "point_of_interest",
        "establishment"
      ],
      "businessStatus": "OPERATIONAL",
      "openNow": true
    },
    {
      "placeId": "ChIJJyidMWYABDQREtWYjwSzXEE",
      "name": "cafe TOO",
      "address": "Supreme Court Road, Central",
      "lat": 22.276974,
      "lng": 114.1642475,
      "rating": 4.1,
      "userRatingsTotal": 440,
      "priceLevel": 3,
      "types": [
        "restaurant",
        "food",
        "point_of_interest",
        "establishment"
      ],
      "businessStatus": "OPERATIONAL",
      "openNow": true
    },
    {
      "placeId": "ChIJk_hd_HsABDQR5ZMLVcC33Vk",
      "name": "Yardbird",
      "address": "Winsome House, 154-158 Wing Lok Street G/F, Shops A and B, Sheung Wan",
      "lat": 22.2872875,
      "lng": 114.1491083,
      "rating": 4.5,
      "userRatingsTotal": 1752,
      "priceLevel": 3,
      "types": [
        "restaurant",
        "food",
        "point_of_interest",
        "establishment"
      ],
      "businessStatus": "OPERATIONAL",
      "openNow": true
    },
    {
      "placeId": "ChIJTSKji2QABDQRqD5qV3Bt2d8",
      "name": "8 1/2 Otto E Mezzo Bombana",
      "address": "Shop 202, 18 Chater Road, Central",
      "lat": 22.28151699999999,
      "lng": 114.1587556,
      "rating": 4.5,
      "userRatingsTotal": 628,
      "priceLevel": 4,
      "types": [
        "restaurant",
        "food",
        "point_of_interest",
        "establishment"
      ],
      "businessStatus": "OPERATIONAL",
      "openNow": true
    },
    {
      "placeId": "ChIJx7wp6HwABDQRcl6W0a4eJL8",
      "name": "Mak An Kee Noodle",
      "address": "37 Wing Kut Street, Central",
      "lat": 22.2853278,
      "lng": 114.1541874,
      "rating": 4,
      "userRatingsTotal": 638,
      "priceLevel": null,
      "types": [
        "restaurant",
        "food",
        "point_of_interest",
        "establishment"
      ],
      "businessStatus": "OPERATIONAL",
      "openNow": true
    },
    {
      "placeId": "ChIJW7GJmF4ABDQR6Cn4r7eqVEY",
      "name": "One Harbour Road at Grand Hyatt Hong Kong",
      "address": "8th Floor, Grand Hyatt Hong Kong, 1 Harbour Road, Wan Chai",
      "lat": 22.2814399,
      "lng": 114.1721267,
      "rating": 4.5,
      "userRatingsTotal": 417,
      "priceLevel": 4,
      "types": [
        "restaurant",
        "food",
        "point_of_interest",
        "establishment"
      ],
      "businessStatus": "OPERATIONAL",
      "openNow": true
    },
    {
      "placeId": "ChIJRQZ-KmUABDQRc_NlvZxxbMc",
      "name": "The Foreign Correspondents’ Club, Hong Kong",
      "address": "North, 2 Lower Albert Road, Central",
      "lat": 22.2803881,
      "lng": 114.1559798,
      "rating": 4.5,
      "userRatingsTotal": 781,
      "priceLevel": null,
      "types": [
        "night_club",
        "tourist_attraction",
        "bar",
        "restaurant",
        "food",
        "point_of_interest",
        "establishment"
      ],
      "businessStatus": "OPERATIONAL",
      "openNow": true
    },
    {
      "placeId": "ChIJAatzZWQABDQRX0tB0DoS3Q0",
      "name": "Man Wah",
      "address": "25/F, Mandarin Oriental Hong Kong, 5 Connaught Road Central, Central",
      "lat": 22.2819935,
      "lng": 114.1592418,
      "rating": 4.4,
      "userRatingsTotal": 455,
      "priceLevel": 4,
      "types": [
        "restaurant",
        "food",
        "point_of_interest",
        "establishment"
      ],
      "businessStatus": "OPERATIONAL",
      "openNow": true
    },
    {
      "placeId": "ChIJ34oAcVsABDQRSy15RVOZfmE",
      "name": "Crystal Jade La Mian Xiao Long Bao Wan Chai Branch",
      "address": "Tai Yau Building, Tai Yau Plaza 3rd Floor, Johnston Road, Wan Chai",
      "lat": 22.2769715,
      "lng": 114.1745573,
      "rating": 3.9,
      "userRatingsTotal": 757,
      "priceLevel": 2,
      "types": [
        "restaurant",
        "food",
        "point_of_interest",
        "establishment"
      ],
      "businessStatus": "OPERATIONAL",
      "openNow": true
    },
    {
      "placeId": "ChIJ-yfeJF0ABDQRK74Yz6UyBa0",
      "name": "La Crêperie",
      "address": "1/F, Kui Chi Mansion, 100 Queen's Road East, Wan Chai",
      "lat": 22.2762938,
      "lng": 114.1700198,
      "rating": 4.4,
      "userRatingsTotal": 681,
      "priceLevel": 2,
      "types": [
        "store",
        "restaurant",
        "food",
        "point_of_interest",
        "establishment"
      ],
      "businessStatus": "OPERATIONAL",
      "openNow": true
    },
    {
      "placeId": "ChIJM6O9TFkABDQR7hLqOag4244",
      "name": "Grand Hyatt Steakhouse",
      "address": "Lobby Level, Grand Hyatt Hong Kong, 1 Harbour Road, Wan Chai",
      "lat": 22.2809683,
      "lng": 114.1723904,
      "rating": 4.5,
      "userRatingsTotal": 477,
      "priceLevel": null,
      "types": [
        "restaurant",
        "food",
        "point_of_interest",
        "establishment"
      ],
      "businessStatus": "OPERATIONAL",
      "openNow": true
    },
    {
      "placeId": "ChIJpZfBnnsABDQRTxtk1F1FvVA",
      "name": "Le Moment",
      "address": "55 Peel Street, Central",
      "lat": 22.2825502,
      "lng": 114.1525778,
      "rating": 4.7,
      "userRatingsTotal": 387,
      "priceLevel": 2,
      "types": [
        "bar",
        "restaurant",
        "food",
        "point_of_interest",
        "establishment"
      ],
      "businessStatus": "OPERATIONAL",
      "openNow": true
    },
    {
      "placeId": "ChIJ61qqQ3sABDQRzd7Aor7tB40",
      "name": "Paisano's Pizzeria",
      "address": "23 Hollywood Road, Central",
      "lat": 22.282202,
      "lng": 114.1540155,
      "rating": 4,
      "userRatingsTotal": 774,
      "priceLevel": 1,
      "types": [
        "restaurant",
        "food",
        "point_of_interest",
        "establishment"
      ],
      "businessStatus": "CLOSED_TEMPORARILY",
      "openNow": null
    },
    {
      "placeId": "ChIJdQmpTHsABDQRY8ztgVZDCP0",
      "name": "Veggie 4 love",
      "address": "10/F, 11號 Stanley Street, Central",
      "lat": 22.282222,
      "lng": 114.155793,
      "rating": 4.5,
      "userRatingsTotal": 453,
      "priceLevel": 2,
      "types": [
        "restaurant",
        "food",
        "point_of_interest",
        "establishment"
      ],
      "businessStatus": "OPERATIONAL",
      "openNow": true
    },
    {
      "placeId": "ChIJuxa47GQABDQRyYGOxs0FtlI",
      "name": "Café Landmark",
      "address": "置地廣場中庭, 1 樓 107-108 號, 15 號 Queen's Road Central, Central",
      "lat": 22.2812751,
      "lng": 114.1580725,
      "rating": 4.2,
      "userRatingsTotal": 1192,
      "priceLevel": 3,
      "types": [
        "cafe",
        "restaurant",
        "food",
        "point_of_interest",
        "establishment"
      ],
      "businessStatus": "OPERATIONAL",
      "openNow": true
    },
    {
      "placeId": "ChIJx6uEZmQABDQRUbVfKnOrutw",
      "name": "Dot Cod Seafood Restaurant & Oyster Bar",
      "address": "G/F & 1/F, Takshing House, Theatre Lane, 20 Des Voeux Road Central, Central",
      "lat": 22.2822268,
      "lng": 114.157196,
      "rating": 4.1,
      "userRatingsTotal": 369,
      "priceLevel": 3,
      "types": [
        "restaurant",
        "food",
        "point_of_interest",
        "establishment"
      ],
      "businessStatus": "OPERATIONAL",
      "openNow": true
    },
    {
      "placeId": "ChIJoSgIensABDQR5iilkXSyLVc",
      "name": "Green Waffle Diner",
      "address": "號地下, 43號 Lyndhurst Terrace, Central",
      "lat": 22.2826499,
      "lng": 114.1533293,
      "rating": 4.3,
      "userRatingsTotal": 623,
      "priceLevel": 2,
      "types": [
        "restaurant",
        "food",
        "point_of_interest",
        "establishment"
      ],
      "businessStatus": "OPERATIONAL",
      "openNow": true
    },
    {
      "placeId": "ChIJTyRka3sABDQREap6hkNNWlY",
      "name": "Ivan The Kozak",
      "address": "1樓, 巴力大廈, 63號 雲咸街, 中環",
      "lat": 22.2814181,
      "lng": 114.1549115,
      "rating": 4.7,
      "userRatingsTotal": 1871,
      "priceLevel": 2,
      "types": [
        "bar",
        "restaurant",
        "food",
        "point_of_interest",
        "establishment"
      ],
      "businessStatus": "OPERATIONAL",
      "openNow": true
    },
    {
      "placeId": "ChIJn3ymJ3sABDQRqlb-QePnw6Y",
      "name": "Koh Thai",
      "address": "57 Wyndham Street, Central",
      "lat": 22.281268,
      "lng": 114.154941,
      "rating": 3.9,
      "userRatingsTotal": 54,
      "priceLevel": null,
      "types": [
        "restaurant",
        "food",
        "point_of_interest",
        "establishment"
      ],
      "businessStatus": "OPERATIONAL",
      "openNow": null
    },
    {
      "placeId": "ChIJu-k-glwABDQRcKhAxn6kOLk",
      "name": "Paisano's Pizzeria",
      "address": "G/F, 5 O'Brien Road, Wan Chai",
      "lat": 22.2772604,
      "lng": 114.1734802,
      "rating": 4.1,
      "userRatingsTotal": 1126,
      "priceLevel": 1,
      "types": [
        "restaurant",
        "food",
        "point_of_interest",
        "establishment"
      ],
      "businessStatus": "OPERATIONAL",
      "openNow": true
    },
    {
      "placeId": "ChIJQzUr2H0ABDQRldFtdbvGGbs",
      "name": "Clipper Lounge",
      "address": "M/F, Mandarin Oriental Hong Kong, 5 Connaught Road Central, Central",
      "lat": 22.281949,
      "lng": 114.159394,
      "rating": 4.2,
      "userRatingsTotal": 866,
      "priceLevel": 4,
      "types": [
        "restaurant",
        "food",
        "point_of_interest",
        "establishment"
      ],
      "businessStatus": "OPERATIONAL",
      "openNow": true
    },
    {
      "placeId": "ChIJswSIunsABDQRYqrvisyI7sQ",
      "name": "Brunch Club",
      "address": "70 Peel Street, 70 Peel Street, Central",
      "lat": 22.281816,
      "lng": 114.151926,
      "rating": 4.1,
      "userRatingsTotal": 449,
      "priceLevel": 2,
      "types": [
        "restaurant",
        "food",
        "point_of_interest",
        "establishment"
      ],
      "businessStatus": "OPERATIONAL",
      "openNow": null
    },
    {
      "placeId": "ChIJgaxW-H4ABDQRvm7h4Kg2i7w",
      "name": "曾記粿品",
      "address": "上環皇后街1號皇后街熟食市場8號檔",
      "lat": 22.2872315,
      "lng": 114.1474189,
      "rating": 4.2,
      "userRatingsTotal": 238,
      "priceLevel": 1,
      "types": [
        "restaurant",
        "food",
        "point_of_interest",
        "establishment"
      ],
      "businessStatus": "OPERATIONAL",
      "openNow": null
    },
    {
      "placeId": "ChIJKcpX6FwABDQRcfnpnYMViCo",
      "name": "Boston Restaurant",
      "address": "3號 Luard Road, Wan Chai",
      "lat": 22.2767587,
      "lng": 114.17136,
      "rating": 3.6,
      "userRatingsTotal": 2068,
      "priceLevel": 2,
      "types": [
        "restaurant",
        "food",
        "point_of_interest",
        "establishment"
      ],
      "businessStatus": "OPERATIONAL",
      "openNow": true
    },
    {
      "placeId": "ChIJy7g_p3sABDQRpykWZLuu-Go",
      "name": "Al Dente Soho",
      "address": "16 Staunton Street, Central",
      "lat": 22.28183569999999,
      "lng": 114.1528923,
      "rating": 4.1,
      "userRatingsTotal": 284,
      "priceLevel": 2,
      "types": [
        "restaurant",
        "food",
        "point_of_interest",
        "establishment"
      ],
      "businessStatus": "OPERATIONAL",
      "openNow": true
    },
    {
      "placeId": "ChIJbaR8AGMABDQR59n9lj6DGE4",
      "name": "Jiang Nan by Crystal Jade - ifc",
      "address": "Shops 2018-2020, 2/F, ifc mall, 8 Finance Street, Central",
      "lat": 22.2848392,
      "lng": 114.1581118,
      "rating": 3.8,
      "userRatingsTotal": 990,
      "priceLevel": 2,
      "types": [
        "restaurant",
        "food",
        "point_of_interest",
        "establishment"
      ],
      "businessStatus": "OPERATIONAL",
      "openNow": true
    },
    {
      "placeId": "ChIJSZUL83wABDQRZW9zjcU_KkE",
      "name": "Gaia Ristorante",
      "address": "F, 181 Queen's Road Central unit 01-05, G, Sheung Wan",
      "lat": 22.2853948,
      "lng": 114.1535499,
      "rating": 4.2,
      "userRatingsTotal": 386,
      "priceLevel": 3,
      "types": [
        "restaurant",
        "food",
        "point_of_interest",
        "establishment"
      ],
      "businessStatus": "OPERATIONAL",
      "openNow": true
    },
    {
      "placeId": "ChIJOxCPhmMABDQR_y1i_-5dQL0",
      "name": "STARBUCKS Jardine House Lobby Shop",
      "address": "Connaught Place, Central",
      "lat": 22.2831586,
      "lng": 114.1590378,
      "rating": 3.9,
      "userRatingsTotal": 499,
      "priceLevel": 2,
      "types": [
        "cafe",
        "food",
        "store",
        "point_of_interest",
        "establishment"
      ],
      "businessStatus": "OPERATIONAL",
      "openNow": true
    },
    {
      "placeId": "ChIJuY8iZWQABDQR8jxci4mKPFc",
      "name": "Café Causette",
      "address": "M/F, Mandarin Oriental Hong Kong, 5 Connaught Road Central, Central",
      "lat": 22.2819214,
      "lng": 114.1594774,
      "rating": 4.4,
      "userRatingsTotal": 490,
      "priceLevel": 4,
      "types": [
        "cafe",
        "food",
        "store",
        "point_of_interest",
        "establishment"
      ],
      "businessStatus": "OPERATIONAL",
      "openNow": true
    },
    {
      "placeId": "ChIJJQdpYHwABDQR7GMvOVbYkWg",
      "name": "Coco Espresso (Jervois Street)",
      "address": "13-15 Jervois Street, Sheung Wan",
      "lat": 22.2852147,
      "lng": 114.1523998,
      "rating": 4.4,
      "userRatingsTotal": 324,
      "priceLevel": null,
      "types": [
        "cafe",
        "food",
        "store",
        "point_of_interest",
        "establishment"
      ],
      "businessStatus": "OPERATIONAL",
      "openNow": null
    },
    {
      "placeId": "ChIJzbDWTWIABDQR5kZmjcWRNL8",
      "name": "The Lounge",
      "address": "Four Seasons Hotel Hong Kong, 8 Finance Street, Central",
      "lat": 22.2864309,
      "lng": 114.1570737,
      "rating": 4.2,
      "userRatingsTotal": 238,
      "priceLevel": null,
      "types": [
        "night_club",
        "cafe",
        "bar",
        "restaurant",
        "food",
        "point_of_interest",
        "establishment"
      ],
      "businessStatus": "OPERATIONAL",
      "openNow": true
    },
    {
      "placeId": "ChIJJ-WB3VwABDQRsgr426S35Hw",
      "name": "Ginger Bakery",
      "address": "55 Johnston Road, Wan Chai",
      "lat": 22.27666,
      "lng": 114.171241,
      "rating": 4.3,
      "userRatingsTotal": 6,
      "priceLevel": null,
      "types": [
        "cafe",
        "food",
        "point_of_interest",
        "establishment"
      ],
      "businessStatus": "OPERATIONAL",
      "openNow": true
    },
    {
      "placeId": "ChIJRUISt2cABDQRbnJmwZoi3GE",
      "name": "COVA Ristorante & Caffe Pacific Place Branch",
      "address": "88 Queensway, Admiralty",
      "lat": 22.277509,
      "lng": 114.166341,
      "rating": 3.8,
      "userRatingsTotal": 201,
      "priceLevel": null,
      "types": [
        "cafe",
        "food",
        "point_of_interest",
        "establishment"
      ],
      "businessStatus": "OPERATIONAL",
      "openNow": true
    },
    {
      "placeId": "ChIJo_OoPGMABDQRNODDioI7MDk",
      "name": "Fuel Espresso ifc",
      "address": "Shop 3023 3/F, ifc mall, Central",
      "lat": 22.2849412,
      "lng": 114.1573214,
      "rating": 4.1,
      "userRatingsTotal": 451,
      "priceLevel": null,
      "types": [
        "cafe",
        "food",
        "store",
        "point_of_interest",
        "establishment"
      ],
      "businessStatus": "OPERATIONAL",
      "openNow": null
    },
    {
      "placeId": "ChIJldq_7mQABDQRB4Q7d1AfCms",
      "name": "Fuel Espresso Landmark Men",
      "address": "Shop B47A B/F, Landmark Men, Central",
      "lat": 22.280609,
      "lng": 114.1577238,
      "rating": 4.2,
      "userRatingsTotal": 389,
      "priceLevel": null,
      "types": [
        "cafe",
        "food",
        "store",
        "point_of_interest",
        "establishment"
      ],
      "businessStatus": "OPERATIONAL",
      "openNow": null
    },
    {
      "placeId": "ChIJiVo6bFwABDQRUeAvk8L21OI",
      "name": "Pacific Coffee",
      "address": "G/F, Fortis Bank Tower, 77 - 79 Gloucester Road, Wanchai, Wanchai",
      "lat": 22.2789815,
      "lng": 114.1726758,
      "rating": 3.9,
      "userRatingsTotal": 276,
      "priceLevel": 2,
      "types": [
        "cafe",
        "food",
        "store",
        "point_of_interest",
        "establishment"
      ],
      "businessStatus": "OPERATIONAL",
      "openNow": true
    },
    {
      "placeId": "ChIJ70bGol4ABDQRHP7MI2iZZ0o",
      "name": "Grand Hyatt Grand Café",
      "address": "Lobby Level, Grand Hyatt Hong Kong, 1 Harbour Road, Wan Chai",
      "lat": 22.281286,
      "lng": 114.17209,
      "rating": 4.3,
      "userRatingsTotal": 397,
      "priceLevel": null,
      "types": [
        "restaurant",
        "cafe",
        "food",
        "point_of_interest",
        "establishment"
      ],
      "businessStatus": "OPERATIONAL",
      "openNow": true
    },
    {
      "placeId": "ChIJG0pwyVsABDQRRMxU7UuYbD4",
      "name": "Le Café",
      "address": "238 Jaffe Road, Wan Chai",
      "lat": 22.2788369,
      "lng": 114.1764152,
      "rating": 4,
      "userRatingsTotal": 491,
      "priceLevel": 2,
      "types": [
        "cafe",
        "food",
        "point_of_interest",
        "establishment"
      ],
      "businessStatus": "OPERATIONAL",
      "openNow": true
    },
    {
      "placeId": "ChIJLw_XI3wABDQR7Q3TGPc6qsQ",
      "name": "Barista Jam",
      "address": "G/F, 97 Jervois Street, Sheung Wan",
      "lat": 22.285622,
      "lng": 114.150544,
      "rating": 4.3,
      "userRatingsTotal": 480,
      "priceLevel": 2,
      "types": [
        "cafe",
        "food",
        "point_of_interest",
        "establishment"
      ],
      "businessStatus": "OPERATIONAL",
      "openNow": null
    },
    {
      "placeId": "ChIJ5ZUWnX4ABDQR3nnKnSDAkrM",
      "name": "Shui Kee Coffee",
      "address": "2/F, Queen's Road Central, Sheung Wan",
      "lat": 22.2861438,
      "lng": 114.1497771,
      "rating": 4,
      "userRatingsTotal": 800,
      "priceLevel": 1,
      "types": [
        "cafe",
        "restaurant",
        "food",
        "store",
        "point_of_interest",
        "establishment"
      ],
      "businessStatus": "OPERATIONAL",
      "openNow": null
    },
    {
      "placeId": "ChIJ_d6ct2cABDQR_-Z39o0-JYg",
      "name": "Dolce 88",
      "address": "88 Queensway, Admiralty",
      "lat": 22.2776616,
      "lng": 114.1662015,
      "rating": 4.2,
      "userRatingsTotal": 38,
      "priceLevel": null,
      "types": [
        "cafe",
        "bakery",
        "food",
        "store",
        "point_of_interest",
        "establishment"
      ],
      "businessStatus": "OPERATIONAL",
      "openNow": null
    },
    {
      "placeId": "ChIJIz1yw2UABDQRbpTE4V_X5Rg",
      "name": "Starbucks",
      "address": "3 Garden Road, Central",
      "lat": 22.2786123,
      "lng": 114.1609375,
      "rating": 3.9,
      "userRatingsTotal": 42,
      "priceLevel": 2,
      "types": [
        "cafe",
        "food",
        "store",
        "point_of_interest",
        "establishment"
      ],
      "businessStatus": "OPERATIONAL",
      "openNow": true
    },
    {
      "placeId": "ChIJ518suXwABDQRtAkE5UOJp-0",
      "name": "Pacific Coffee",
      "address": "Shop 4, Entrance Hall Floor, The Center, 99 Queen's Road, Central, Central",
      "lat": 22.284668,
      "lng": 114.154767,
      "rating": 3.9,
      "userRatingsTotal": 341,
      "priceLevel": 2,
      "types": [
        "cafe",
        "food",
        "store",
        "point_of_interest",
        "establishment"
      ],
      "businessStatus": "OPERATIONAL",
      "openNow": null
    },
    {
      "placeId": "ChIJlxm6vX0ABDQRedIcpbICE7Q",
      "name": "STARBUCKS Shun Tak Centre Shop",
      "address": "Shun Tak Centre, 168-200 Connaught Road Central, Sheung Wan",
      "lat": 22.2877516,
      "lng": 114.1524929,
      "rating": 3.8,
      "userRatingsTotal": 209,
      "priceLevel": 2,
      "types": [
        "cafe",
        "food",
        "store",
        "point_of_interest",
        "establishment"
      ],
      "businessStatus": "OPERATIONAL",
      "openNow": true
    },
    {
      "placeId": "ChIJ3UeUqXwABDQRoU7bxz6FyII",
      "name": "Podium Cafe",
      "address": "4樓B室, Man Hing Commercial Building, 79-83號 Queen's Road Central, Central",
      "lat": 22.283438,
      "lng": 114.1553941,
      "rating": null,
      "userRatingsTotal": 0,
      "priceLevel": null,
      "types": [
        "cafe",
        "food",
        "point_of_interest",
        "establishment"
      ],
      "businessStatus": "OPERATIONAL",
      "openNow": true
    },
    {
      "placeId": "ChIJjRKVY10ABDQR17o40RskAWc",
      "name": "Pacific Coffee",
      "address": "St. John's Building, Shop D, G/F, St John's Building, 33 Garden Road, Central, Garden Road, Central",
      "lat": 22.2777146,
      "lng": 114.1590998,
      "rating": 3.5,
      "userRatingsTotal": 18,
      "priceLevel": 2,
      "types": [
        "cafe",
        "food",
        "point_of_interest",
        "store",
        "establishment"
      ],
      "businessStatus": "OPERATIONAL",
      "openNow": null
    },
    {
      "placeId": "ChIJbZXewXwABDQRrIo3CrbK24w",
      "name": "Affinity Cafe",
      "address": "Hong Kong",
      "lat": 22.285538,
      "lng": 114.154562,
      "rating": 4,
      "userRatingsTotal": 1,
      "priceLevel": null,
      "types": [
        "cafe",
        "food",
        "point_of_interest",
        "establishment"
      ],
      "businessStatus": "OPERATIONAL",
      "openNow": null
    },
    {
      "placeId": "ChIJ8Q0GXYf_AzQR-rWcw9A8KKI",
      "name": "Books & Co.",
      "address": "10 Park Road, Mid-Levels",
      "lat": 22.2840513,
      "lng": 114.1434552,
      "rating": 4,
      "userRatingsTotal": 187,
      "priceLevel": null,
      "types": [
        "book_store",
        "bakery",
        "cafe",
        "restaurant",
        "food",
        "point_of_interest",
        "store",
        "establishment"
      ],
      "businessStatus": "OPERATIONAL",
      "openNow": null
    },
    {
      "placeId": "ChIJhdUM-XwABDQRGE3kb8O7d_w",
      "name": "STARBUCKS Kwong Fat Hong Building Shop",
      "address": "1 Rumsey Street, Sheung Wan",
      "lat": 22.28597299999999,
      "lng": 114.153131,
      "rating": 3.6,
      "userRatingsTotal": 287,
      "priceLevel": 2,
      "types": [
        "cafe",
        "food",
        "point_of_interest",
        "store",
        "establishment"
      ],
      "businessStatus": "OPERATIONAL",
      "openNow": null
    },
    {
      "placeId": "ChIJez5yhGMABDQRbyec00H1mCU",
      "name": "STARBUCKS Admiralty Centre Shop",
      "address": "93 Queensway, Admiralty",
      "lat": 22.279315,
      "lng": 114.1649826,
      "rating": 3.6,
      "userRatingsTotal": 82,
      "priceLevel": 2,
      "types": [
        "cafe",
        "food",
        "point_of_interest",
        "store",
        "establishment"
      ],
      "businessStatus": "OPERATIONAL",
      "openNow": null
    },
    {
      "placeId": "ChIJ0w4LMnsABDQRCAV0PmVgLpw",
      "name": "Pret A Manger",
      "address": "2AB, 89 Queensway Lippo Centre 1/F, Shop No 2AA &",
      "lat": 22.2795367,
      "lng": 114.1638785,
      "rating": 4,
      "userRatingsTotal": 94,
      "priceLevel": 2,
      "types": [
        "bakery",
        "cafe",
        "restaurant",
        "food",
        "point_of_interest",
        "store",
        "establishment"
      ],
      "businessStatus": "OPERATIONAL",
      "openNow": null
    },
    {
      "placeId": "ChIJQd-hKF8ABDQRuUmx6ouNVMg",
      "name": "Port Cafe",
      "address": "1 Expo Drive",
      "lat": 22.283608,
      "lng": 114.172934,
      "rating": 4.7,
      "userRatingsTotal": 7,
      "priceLevel": null,
      "types": [
        "restaurant",
        "cafe",
        "food",
        "point_of_interest",
        "establishment"
      ],
      "businessStatus": "OPERATIONAL",
      "openNow": null
    },
    {
      "placeId": "ChIJfQ8G114ABDQRMqh70AHWGc8",
      "name": "Harbour Road Cafe",
      "address": "1 Harbour Road, Wan Chai",
      "lat": 22.2810541,
      "lng": 114.1729032,
      "rating": 3.2,
      "userRatingsTotal": 42,
      "priceLevel": null,
      "types": [
        "cafe",
        "food",
        "point_of_interest",
        "store",
        "establishment"
      ],
      "businessStatus": "OPERATIONAL",
      "openNow": null
    },
    {
      "placeId": "ChIJg4WCblwABDQRbjKoyKZ7QLI",
      "name": "Starbucks",
      "address": "地下1號舖 華比 Fortis Tower 77-79號, Gloucester Road, Wan Chai",
      "lat": 22.2789895,
      "lng": 114.1725914,
      "rating": 4,
      "userRatingsTotal": 528,
      "priceLevel": 2,
      "types": [
        "cafe",
        "food",
        "point_of_interest",
        "store",
        "establishment"
      ],
      "businessStatus": "OPERATIONAL",
      "openNow": true
    },
    {
      "placeId": "ChIJhwLnCmIABDQRT11Tvj8vaJQ",
      "name": "Uncleruss Coffee, pier 6",
      "address": "Shop kd, lower deck, Central Ferry Pier No.6, Man Kwong Street, Central",
      "lat": 22.2873797,
      "lng": 114.1603311,
      "rating": 4.2,
      "userRatingsTotal": 132,
      "priceLevel": null,
      "types": [
        "cafe",
        "food",
        "point_of_interest",
        "store",
        "establishment"
      ],
      "businessStatus": "OPERATIONAL",
      "openNow": true
    },
    {
      "placeId": "ChIJHzGscVsABDQRHTHGrfeon5o",
      "name": "Pacific Coffee",
      "address": "Shop 106 - 110, 1/F, Great Eagle Centre, 23 Harbour Road, Wanchai, Wanchai",
      "lat": 22.2811107,
      "lng": 114.1746563,
      "rating": 4,
      "userRatingsTotal": 322,
      "priceLevel": 2,
      "types": [
        "cafe",
        "food",
        "point_of_interest",
        "store",
        "establishment"
      ],
      "businessStatus": "OPERATIONAL",
      "openNow": true
    },
    {
      "placeId": "ChIJHzGscVsABDQRDXdIzXqa5Ps",
      "name": "Delifrance",
      "address": "101及102號舖, 大有廣場, 181號 Johnston Road, Wan Chai",
      "lat": 22.2769912,
      "lng": 114.1745406,
      "rating": 3.8,
      "userRatingsTotal": 337,
      "priceLevel": 2,
      "types": [
        "cafe",
        "food",
        "point_of_interest",
        "establishment"
      ],
      "businessStatus": "OPERATIONAL",
      "openNow": true
    },
    {
      "placeId": "ChIJ6wREG3wABDQRQeahtWmZhD8",
      "name": "K1 Cafe & Bar",
      "address": "Hong Kong",
      "lat": 22.28486539999999,
      "lng": 114.1503335,
      "rating": null,
      "userRatingsTotal": 0,
      "priceLevel": null,
      "types": [
        "cafe",
        "food",
        "point_of_interest",
        "establishment"
      ],
      "businessStatus": "OPERATIONAL",
      "openNow": true
    },
    {
      "placeId": "ChIJ4SwVa1oABDQR_bhBTSafC1M",
      "name": "STARBUCKS Sun Hung Kai Centre Shop",
      "address": "30 Harbour Road, Wan Chai",
      "lat": 22.2803654,
      "lng": 114.1769119,
      "rating": 3.9,
      "userRatingsTotal": 121,
      "priceLevel": 2,
      "types": [
        "cafe",
        "food",
        "point_of_interest",
        "store",
        "establishment"
      ],
      "businessStatus": "OPERATIONAL",
      "openNow": null
    },
    {
      "placeId": "ChIJ9TjWVHoABDQRY6eUZjYT1sg",
      "name": "Starbucks (Caine Road, Mid-Levels)",
      "address": "51 Caine Road, Mid-Levels",
      "lat": 22.2809451,
      "lng": 114.152656,
      "rating": 4,
      "userRatingsTotal": 269,
      "priceLevel": 2,
      "types": [
        "cafe",
        "food",
        "point_of_interest",
        "store",
        "establishment"
      ],
      "businessStatus": "OPERATIONAL",
      "openNow": true
    },
    {
      "placeId": "ChIJHTysMUMABDQRP3pXpExGrns",
      "name": "STARBUCKS RESERVE™ Hopewell Centre Shop",
      "address": "3F, 183 Queen's Road East, Wan Chai",
      "lat": 22.2746422,
      "lng": 114.1717929,
      "rating": 3.8,
      "userRatingsTotal": 468,
      "priceLevel": 2,
      "types": [
        "cafe",
        "food",
        "point_of_interest",
        "store",
        "establishment"
      ],
      "businessStatus": "OPERATIONAL",
      "openNow": true
    },
    {
      "placeId": "ChIJZV9yWmcABDQRRIl168oTgJ0",
      "name": "Pacific Coffee",
      "address": "Shop 107, Level 1, Tai Yau Plaza, 181 Johnston Road, Wan Chai",
      "lat": 22.2770477,
      "lng": 114.1746795,
      "rating": 3.8,
      "userRatingsTotal": 370,
      "priceLevel": 2,
      "types": [
        "cafe",
        "food",
        "point_of_interest",
        "store",
        "establishment"
      ],
      "businessStatus": "OPERATIONAL",
      "openNow": null
    },
    {
      "placeId": "ChIJKZNuDmMABDQRvULyo9TU-OU",
      "name": "STARBUCKS RESERVE™ International Finance Centre (IFC)",
      "address": "商場2樓2097-2098號舖, International Finance Centre, Central",
      "lat": 22.2848956,
      "lng": 114.1593791,
      "rating": 3.8,
      "userRatingsTotal": 418,
      "priceLevel": 2,
      "types": [
        "cafe",
        "food",
        "point_of_interest",
        "store",
        "establishment"
      ],
      "businessStatus": "OPERATIONAL",
      "openNow": true
    },
    {
      "placeId": "ChIJQ-3wr34ABDQR6gGLDq0qD88",
      "name": "Wah Lok Cafe",
      "address": "16號 Tung Street, Central",
      "lat": 22.285196,
      "lng": 114.1494923,
      "rating": 4.4,
      "userRatingsTotal": 563,
      "priceLevel": null,
      "types": [
        "cafe",
        "restaurant",
        "food",
        "point_of_interest",
        "establishment"
      ],
      "businessStatus": "OPERATIONAL",
      "openNow": null
    },
    {
      "placeId": "ChIJN84sB2cABDQRoXxu3fAb2jA",
      "name": "Starbucks",
      "address": "港鐵站轉車大堂 K4-K5 號舖, Central",
      "lat": 22.2819989,
      "lng": 114.1576766,
      "rating": 3.9,
      "userRatingsTotal": 189,
      "priceLevel": 2,
      "types": [
        "cafe",
        "food",
        "point_of_interest",
        "store",
        "establishment"
      ],
      "businessStatus": "OPERATIONAL",
      "openNow": true
    },
    {
      "placeId": "ChIJCQv0SHwABDQRWYewddcYOYQ",
      "name": "Mingle At The Eden",
      "address": "148 Wellington Street, Central",
      "lat": 22.284,
      "lng": 114.153637,
      "rating": 3.5,
      "userRatingsTotal": 44,
      "priceLevel": null,
      "types": [
        "bar",
        "point_of_interest",
        "establishment"
      ],
      "businessStatus": "OPERATIONAL",
      "openNow": null
    },
    {
      "placeId": "ChIJUQaoIHsABDQRi-X9IdSLy0w",
      "name": "Dragon i",
      "address": "The Centrium, UG/F, 60 Wyndham Street, Central",
      "lat": 22.2805456,
      "lng": 114.1547233,
      "rating": 4.1,
      "userRatingsTotal": 586,
      "priceLevel": 4,
      "types": [
        "bar",
        "point_of_interest",
        "establishment"
      ],
      "businessStatus": "OPERATIONAL",
      "openNow": true
    },
    {
      "placeId": "ChIJ96UfVFwABDQRCEu2hSpAKHU",
      "name": "Carnegies",
      "address": "Lockhart Road, Wan Chai",
      "lat": 22.27842099999999,
      "lng": 114.170814,
      "rating": 4,
      "userRatingsTotal": 296,
      "priceLevel": 2,
      "types": [
        "bar",
        "point_of_interest",
        "establishment"
      ],
      "businessStatus": "OPERATIONAL",
      "openNow": true
    },
    {
      "placeId": "ChIJwzeIKmUABDQR8VxjuNzFq3Q",
      "name": "Fringe Club",
      "address": "2 Lower Albert Road, Central",
      "lat": 22.2802398,
      "lng": 114.1557172,
      "rating": 4.2,
      "userRatingsTotal": 754,
      "priceLevel": null,
      "types": [
        "art_gallery",
        "bar",
        "restaurant",
        "food",
        "point_of_interest",
        "establishment"
      ],
      "businessStatus": "OPERATIONAL",
      "openNow": null
    },
    {
      "placeId": "ChIJQeOf_1wABDQR1tka9_Hob_8",
      "name": "Trafalgar",
      "address": "5樓, Lockhart Road, Wan Chai",
      "lat": 22.2780556,
      "lng": 114.1708333,
      "rating": 3.8,
      "userRatingsTotal": 429,
      "priceLevel": 2,
      "types": [
        "bar",
        "restaurant",
        "food",
        "point_of_interest",
        "establishment"
      ],
      "businessStatus": "OPERATIONAL",
      "openNow": true
    },
    {
      "placeId": "ChIJx-CcdXsABDQRl1qN9-oVwW4",
      "name": "The Globe",
      "address": "Garley Building, 45-53A Graham Street, Central",
      "lat": 22.2824181,
      "lng": 114.1526865,
      "rating": 4.4,
      "userRatingsTotal": 1512,
      "priceLevel": 2,
      "types": [
        "bar",
        "restaurant",
        "food",
        "point_of_interest",
        "establishment"
      ],
      "businessStatus": "OPERATIONAL",
      "openNow": true
    },
    {
      "placeId": "ChIJ5wN8KXsABDQRxhuCK3ulvKk",
      "name": "Graffiti",
      "address": "地下, 17, 17號 Lan Kwai Fong, Central",
      "lat": 22.2807574,
      "lng": 114.1553167,
      "rating": 3.9,
      "userRatingsTotal": 100,
      "priceLevel": 2,
      "types": [
        "bar",
        "point_of_interest",
        "establishment"
      ],
      "businessStatus": "OPERATIONAL",
      "openNow": true
    },
    {
      "placeId": "ChIJK5NccXsABDQRTu-GxFlemok",
      "name": "Dharma Den",
      "address": "43 Lyndhurst Terrace, Central",
      "lat": 22.282667,
      "lng": 114.153321,
      "rating": null,
      "userRatingsTotal": 0,
      "priceLevel": null,
      "types": [
        "bar",
        "point_of_interest",
        "establishment"
      ],
      "businessStatus": "OPERATIONAL",
      "openNow": null
    },
    {
      "placeId": "ChIJMw8dqHsABDQRHU3rE4Bc9W8",
      "name": "Staunton's Bar & Kitchen",
      "address": "10-12 Staunton Street, Central",
      "lat": 22.281775,
      "lng": 114.1529006,
      "rating": 4.3,
      "userRatingsTotal": 487,
      "priceLevel": 2,
      "types": [
        "bar",
        "restaurant",
        "food",
        "point_of_interest",
        "establishment"
      ],
      "businessStatus": "OPERATIONAL",
      "openNow": true
    },
    {
      "placeId": "ChIJeSdAQ1wABDQRJNC14VHibfU",
      "name": "Woodlands (Wan Chai) Indian Vegetarian Restaurant in Hong Kong",
      "address": "1/F, 20 Luard Road, Wan Chai",
      "lat": 22.2786786,
      "lng": 114.1718584,
      "rating": 4.4,
      "userRatingsTotal": 1495,
      "priceLevel": 2,
      "types": [
        "bar",
        "restaurant",
        "food",
        "point_of_interest",
        "establishment"
      ],
      "businessStatus": "OPERATIONAL",
      "openNow": true
    },
    {
      "placeId": "ChIJD3PBLnsABDQRjjwP4Ky5Hmg",
      "name": "Vice",
      "address": "Hong Kong",
      "lat": 22.28079739999999,
      "lng": 114.1553607,
      "rating": 3.9,
      "userRatingsTotal": 15,
      "priceLevel": null,
      "types": [
        "bar",
        "point_of_interest",
        "establishment"
      ],
      "businessStatus": "OPERATIONAL",
      "openNow": true
    },
    {
      "placeId": "ChIJQ-5Jz2QABDQR2Z1FFrKsKqI",
      "name": "Jimmy's Kitchen",
      "address": "M/F, Pedder Building, 12 Pedder Street, Central",
      "lat": 22.2818636,
      "lng": 114.1570102,
      "rating": 4.3,
      "userRatingsTotal": 460,
      "priceLevel": null,
      "types": [
        "bar",
        "restaurant",
        "food",
        "point_of_interest",
        "establishment"
      ],
      "businessStatus": "OPERATIONAL",
      "openNow": true
    },
    {
      "placeId": "ChIJDSrY2X0ABDQR9-Jv3GQatvc",
      "name": "Mandarin Grill + Bar",
      "address": "1/F, Mandarin Oriental Hong Kong, 5 Connaught Road Central, Central",
      "lat": 22.281928,
      "lng": 114.159408,
      "rating": 4.6,
      "userRatingsTotal": 459,
      "priceLevel": null,
      "types": [
        "bar",
        "restaurant",
        "food",
        "point_of_interest",
        "establishment"
      ],
      "businessStatus": "CLOSED_TEMPORARILY",
      "openNow": null
    },
    {
      "placeId": "ChIJ-akJKXsABDQRIUKn551ehoo",
      "name": "Volar",
      "address": "Basement 38, 38-44 D'Aguilar Street, Central",
      "lat": 22.2807626,
      "lng": 114.1553731,
      "rating": 3.6,
      "userRatingsTotal": 110,
      "priceLevel": 3,
      "types": [
        "night_club",
        "bar",
        "point_of_interest",
        "establishment"
      ],
      "businessStatus": "OPERATIONAL",
      "openNow": null
    },
    {
      "placeId": "ChIJrSWaYFwABDQR6rx8TU1FfvM",
      "name": "Bar 109",
      "address": "109 Lockhart Road, Wan Chai",
      "lat": 22.2782096,
      "lng": 114.1723694,
      "rating": 3.9,
      "userRatingsTotal": 236,
      "priceLevel": 2,
      "types": [
        "bar",
        "restaurant",
        "food",
        "point_of_interest",
        "establishment"
      ],
      "businessStatus": "OPERATIONAL",
      "openNow": true
    },
    {
      "placeId": "ChIJrXCZo10ABDQRtqWUdXzUqvc",
      "name": "The Wanch",
      "address": "1/F, Henan Building, 90 Jaffe Road, Wan Chai",
      "lat": 22.2785429,
      "lng": 114.1715642,
      "rating": 4.5,
      "userRatingsTotal": 753,
      "priceLevel": 2,
      "types": [
        "restaurant",
        "bar",
        "food",
        "point_of_interest",
        "establishment"
      ],
      "businessStatus": "OPERATIONAL",
      "openNow": true
    },
    {
      "placeId": "ChIJW0KjK3sABDQRDeUB7EUuenc",
      "name": "Chocolate",
      "address": "Lan Kwai Fong No. 2, G/F, 中環蘭桂坊2號地下, Central",
      "lat": 22.280987,
      "lng": 114.155699,
      "rating": 3.5,
      "userRatingsTotal": 51,
      "priceLevel": null,
      "types": [
        "bar",
        "point_of_interest",
        "establishment"
      ],
      "businessStatus": "OPERATIONAL",
      "openNow": true
    },
    {
      "placeId": "ChIJzbDWTWIABDQR28G7gJPpDGI",
      "name": "Pool Terrace",
      "address": "6F, Four Seasons Hotel Hong Kong, 8 Finance Street, Central",
      "lat": 22.2864869,
      "lng": 114.1568904,
      "rating": 4.6,
      "userRatingsTotal": 31,
      "priceLevel": null,
      "types": [
        "meal_takeaway",
        "bar",
        "restaurant",
        "food",
        "point_of_interest",
        "establishment"
      ],
      "businessStatus": "OPERATIONAL",
      "openNow": true
    },
    {
      "placeId": "ChIJ7Y--AFsABDQRuUdpHqJZRVg",
      "name": "Harvest House Sushi",
      "address": "1/F, 83 Wan Chai Road, Wan Chai",
      "lat": 22.2763094,
      "lng": 114.1748452,
      "rating": 4.4,
      "userRatingsTotal": 591,
      "priceLevel": 2,
      "types": [
        "bar",
        "restaurant",
        "food",
        "point_of_interest",
        "establishment"
      ],
      "businessStatus": "OPERATIONAL",
      "openNow": true
    },
    {
      "placeId": "ChIJ_TkMMmYABDQRhl_3iepNAfM",
      "name": "Lobster Bar and Grill",
      "address": "Level 6, Pacific Place, Supreme Court Road, Central",
      "lat": 22.2773459,
      "lng": 114.1644976,
      "rating": 4.4,
      "userRatingsTotal": 278,
      "priceLevel": 4,
      "types": [
        "bar",
        "restaurant",
        "food",
        "point_of_interest",
        "establishment"
      ],
      "businessStatus": "OPERATIONAL",
      "openNow": true
    },
    {
      "placeId": "ChIJ-eEbWlwABDQRdKqJf3XOpXM",
      "name": "Bar Amazonia",
      "address": "15 Luard Road, Wan Chai",
      "lat": 22.2784008,
      "lng": 114.17158,
      "rating": 4,
      "userRatingsTotal": 501,
      "priceLevel": 2,
      "types": [
        "bar",
        "point_of_interest",
        "establishment"
      ],
      "businessStatus": "OPERATIONAL",
      "openNow": true
    },
    {
      "placeId": "ChIJjzHrrl0ABDQRLnSf_Sw6Yz0",
      "name": "Splash Bar",
      "address": "21 Fenwick Street, Wanchai, Hong Kong, G/F, Shop A&B",
      "lat": 22.278592,
      "lng": 114.1701775,
      "rating": null,
      "userRatingsTotal": 0,
      "priceLevel": null,
      "types": [
        "bar",
        "restaurant",
        "food",
        "point_of_interest",
        "establishment"
      ],
      "businessStatus": "OPERATIONAL",
      "openNow": true
    },
    {
      "placeId": "ChIJ_wzOm3sABDQR0tXcvr9IfwM",
      "name": "Culture Club Gallery",
      "address": "15 Elgin Street, Central",
      "lat": 22.2828143,
      "lng": 114.1522842,
      "rating": 4.3,
      "userRatingsTotal": 43,
      "priceLevel": 2,
      "types": [
        "bar",
        "point_of_interest",
        "establishment"
      ],
      "businessStatus": "OPERATIONAL",
      "openNow": true
    },
    {
      "placeId": "ChIJ6-pqKXsABDQRKU707Grq7z4",
      "name": "Charcoal HK",
      "address": "4/F A-B , Ho Lee Commercial Building, 40 D'Aguilar Street, Lan Kwai Fong, Central 中環蘭桂坊德己立街38-44號好利商業大廈4樓A及B室, Central",
      "lat": 22.2807786,
      "lng": 114.1553019,
      "rating": 3.9,
      "userRatingsTotal": 113,
      "priceLevel": 2,
      "types": [
        "bar",
        "night_club",
        "point_of_interest",
        "establishment"
      ],
      "businessStatus": "OPERATIONAL",
      "openNow": true
    },
    {
      "placeId": "ChIJd4Pim3sABDQRjog5Z416SLg",
      "name": "Soiree",
      "address": "地下 C 舖, Tai Lee Building, HK 香港島 中環 環, 15-19號 Elgin Street",
      "lat": 22.2828143,
      "lng": 114.1522842,
      "rating": 4.5,
      "userRatingsTotal": 62,
      "priceLevel": 2,
      "types": [
        "bar",
        "point_of_interest",
        "establishment"
      ],
      "businessStatus": "OPERATIONAL",
      "openNow": true
    },
    {
      "placeId": "ChIJr3BSVVwABDQROPP4c2-U7U8",
      "name": "The White Stag",
      "address": "62號 Lockhart Road, Wan Chai",
      "lat": 22.2780433,
      "lng": 114.1708342,
      "rating": 4.3,
      "userRatingsTotal": 224,
      "priceLevel": 2,
      "types": [
        "bar",
        "point_of_interest",
        "establishment"
      ],
      "businessStatus": "OPERATIONAL",
      "openNow": true
    },
    {
      "placeId": "ChIJw53ZrnsABDQRnFkAP8siOzc",
      "name": "Sole Mio Italian Restaurant",
      "address": "Upper Ground (UG/F, The Elgin, Soho, 51 Elgin Street, Central",
      "lat": 22.2811469,
      "lng": 114.1526154,
      "rating": 4.4,
      "userRatingsTotal": 282,
      "priceLevel": 2,
      "types": [
        "bar",
        "restaurant",
        "food",
        "point_of_interest",
        "establishment"
      ],
      "businessStatus": "OPERATIONAL",
      "openNow": true
    },
    {
      "placeId": "ChIJFRHx7nwABDQRlDnTRfjn8h8",
      "name": "La Lune",
      "address": "號舖, Wing Wo Street, Sheung Wan",
      "lat": 22.2853517,
      "lng": 114.1539631,
      "rating": 3.9,
      "userRatingsTotal": 12,
      "priceLevel": 2,
      "types": [
        "bar",
        "restaurant",
        "food",
        "point_of_interest",
        "establishment"
      ],
      "businessStatus": "OPERATIONAL",
      "openNow": true
    },
    {
      "placeId": "ChIJdREiW1wABDQR_gDymcElLN0",
      "name": "Joe Bananas",
      "address": "The Phoenix Bldg 23, Luard Road, Wan Chai",
      "lat": 22.2787446,
      "lng": 114.1715046,
      "rating": 3.9,
      "userRatingsTotal": 649,
      "priceLevel": 2,
      "types": [
        "bar",
        "point_of_interest",
        "establishment"
      ],
      "businessStatus": "OPERATIONAL",
      "openNow": true
    },
    {
      "placeId": "ChIJ76XxmF4ABDQRdO0w2U_Bbbg",
      "name": "Champagne Bar at Grand Hyatt Hong Kong",
      "address": "Lobby Level, Grand Hyatt Hong Kong, 1 Harbour Road, Wan Chai",
      "lat": 22.281286,
      "lng": 114.17209,
      "rating": 4.6,
      "userRatingsTotal": 31,
      "priceLevel": null,
      "types": [
        "bar",
        "night_club",
        "point_of_interest",
        "establishment"
      ],
      "businessStatus": "OPERATIONAL",
      "openNow": true
    },
    {
      "placeId": "ChIJfe9-2HoABDQRVAexeU2qs90",
      "name": "Tonic",
      "address": "Yu Yuet Lai Building, Wyndham Street, Central",
      "lat": 22.2806808,
      "lng": 114.1549294,
      "rating": 3.3,
      "userRatingsTotal": 44,
      "priceLevel": 2,
      "types": [
        "bar",
        "point_of_interest",
        "establishment"
      ],
      "businessStatus": "OPERATIONAL",
      "openNow": true
    },
    {
      "placeId": "ChIJq2xl62MABDQReLFOv1lNvuo",
      "name": "The Beer Bay",
      "address": "Central Pier No. 4 - Yung Shue Wan Ferry Pier, Central",
      "lat": 22.2878342,
      "lng": 114.158307,
      "rating": 4.5,
      "userRatingsTotal": 417,
      "priceLevel": 1,
      "types": [
        "bar",
        "point_of_interest",
        "establishment"
      ],
      "businessStatus": "OPERATIONAL",
      "openNow": true
    },
    {
      "placeId": "ChIJN7TJMXsABDQRDUwG3gBUon0",
      "name": "Le Jardin",
      "address": "Winner Building Block B, 8 Wing Wah Lane, Central",
      "lat": 22.2813421,
      "lng": 114.1551891,
      "rating": 4.1,
      "userRatingsTotal": 93,
      "priceLevel": null,
      "types": [
        "bar",
        "point_of_interest",
        "establishment"
      ],
      "businessStatus": "OPERATIONAL",
      "openNow": true
    },
    {
      "placeId": "ChIJhzcdoXsABDQRlLBLyQYlW44",
      "name": "Club 1911",
      "address": "27 Staunton Street, Central",
      "lat": 22.2821802,
      "lng": 114.1527276,
      "rating": 4.1,
      "userRatingsTotal": 36,
      "priceLevel": null,
      "types": [
        "bar",
        "point_of_interest",
        "establishment"
      ],
      "businessStatus": "OPERATIONAL",
      "openNow": true
    },
    {
      "placeId": "ChIJN9i-kn4ABDQRWC8dkEF2ln0",
      "name": "Zuma Hong Kong",
      "address": "Level 5&6 Landmark Atrium, 15 Queen's Road Central, Central",
      "lat": 22.2805197,
      "lng": 114.1578643,
      "rating": 4.3,
      "userRatingsTotal": 1202,
      "priceLevel": 4,
      "types": [
        "night_club",
        "bar",
        "restaurant",
        "food",
        "point_of_interest",
        "establishment"
      ],
      "businessStatus": "OPERATIONAL",
      "openNow": true
    },
    {
      "placeId": "ChIJ012Yql0ABDQRIm3i3HBbxeA",
      "name": "Devils Advocate",
      "address": "48 Lockhart Road, Wan Chai",
      "lat": 22.2780561,
      "lng": 114.1706842,
      "rating": 3.9,
      "userRatingsTotal": 171,
      "priceLevel": 2,
      "types": [
        "restaurant",
        "bar",
        "food",
        "point_of_interest",
        "establishment"
      ],
      "businessStatus": "OPERATIONAL",
      "openNow": true
    },
    {
      "placeId": "ChIJByjqov3-AzQR2pT0dDW0bUg",
      "name": "Hong Kong",
      "address": "Hong Kong",
      "lat": 22.3193292,
      "lng": 114.1694229,
      "rating": null,
      "userRatingsTotal": 0,
      "priceLevel": null,
      "types": [
        "locality",
        "political"
      ],
      "businessStatus": "",
      "openNow": null
    },
    {
      "placeId": "ChIJDQXgUWQABDQR7W6wpViTees",
      "name": "HSBC Building",
      "address": "1 Queen's Road Central, Central",
      "lat": 22.2802222,
      "lng": 114.1593865,
      "rating": 4.1,
      "userRatingsTotal": 1187,
      "priceLevel": null,
      "types": [
        "point_of_interest",
        "establishment"
      ],
      "businessStatus": "OPERATIONAL",
      "openNow": null
    },
    {
      "placeId": "ChIJVUEjF2QABDQR88baldklWYg",
      "name": "The Mandarin Cake Shop",
      "address": "M/F, Mandarin Oriental Hong Kong, 5 Connaught Road Central, Central",
      "lat": 22.281959,
      "lng": 114.159416,
      "rating": 4.4,
      "userRatingsTotal": 395,
      "priceLevel": null,
      "types": [
        "bakery",
        "food",
        "store",
        "point_of_interest",
        "establishment"
      ],
      "businessStatus": "OPERATIONAL",
      "openNow": true
    },
    {
      "placeId": "ChIJcYGO5GQABDQRac6ASI5lchM",
      "name": "Mandarin Oriental The Landmark, Hong Kong",
      "address": "15 Queen's Road Central, Central",
      "lat": 22.280518,
      "lng": 114.157939,
      "rating": 4.5,
      "userRatingsTotal": 674,
      "priceLevel": null,
      "types": [
        "spa",
        "lodging",
        "food",
        "point_of_interest",
        "establishment"
      ],
      "businessStatus": "OPERATIONAL",
      "openNow": null
    },
    {
      "placeId": "ChIJcRvXXWQABDQRnw9jKFazaZc",
      "name": "Landmark Prince's",
      "address": "10 Chater Road, Central",
      "lat": 22.28119629999999,
      "lng": 114.1592117,
      "rating": 4,
      "userRatingsTotal": 1646,
      "priceLevel": null,
      "types": [
        "shopping_mall",
        "point_of_interest",
        "establishment"
      ],
      "businessStatus": "OPERATIONAL",
      "openNow": true
    },
    {
      "placeId": "ChIJldq_7mQABDQRsFVoU4u6QrA",
      "name": "LANDMARK",
      "address": "15 Queen's Road Central, Central",
      "lat": 22.2811864,
      "lng": 114.1578201,
      "rating": 4.2,
      "userRatingsTotal": 3548,
      "priceLevel": null,
      "types": [
        "shopping_mall",
        "point_of_interest",
        "establishment"
      ],
      "businessStatus": "OPERATIONAL",
      "openNow": true
    },
    {
      "placeId": "ChIJoQTZXWQABDQRoTRNrb6Glz0",
      "name": "La Maison du Chocolat Prince Building太子大廈",
      "address": "Shop 114, Landmark Prince's, 10 Chater Road, Central",
      "lat": 22.2811065,
      "lng": 114.1590135,
      "rating": 4.8,
      "userRatingsTotal": 11,
      "priceLevel": null,
      "types": [
        "bakery",
        "food",
        "store",
        "point_of_interest",
        "establishment"
      ],
      "businessStatus": "OPERATIONAL",
      "openNow": null
    },
    {
      "placeId": "ChIJHy0z7GQABDQRyztFHUcrlhI",
      "name": "See's Candies Chocolate Shops",
      "address": "15 Queen's Road Central The Landmark, Shop 110B, 1/F, Central",
      "lat": 22.280545,
      "lng": 114.157903,
      "rating": 3.9,
      "userRatingsTotal": 20,
      "priceLevel": null,
      "types": [
        "food",
        "store",
        "point_of_interest",
        "establishment"
      ],
      "businessStatus": "OPERATIONAL",
      "openNow": null
    },
    {
      "placeId": "ChIJCzbV2GQABDQRIn-ZJwWFqs4",
      "name": "Tsui Hang Village (Central)",
      "address": "16-18 Queen's Road Central, Central",
      "lat": 22.2806147,
      "lng": 114.1573616,
      "rating": 3.9,
      "userRatingsTotal": 524,
      "priceLevel": 3,
      "types": [
        "restaurant",
        "food",
        "point_of_interest",
        "establishment"
      ],
      "businessStatus": "OPERATIONAL",
      "openNow": true
    },
    {
      "placeId": "ChIJdcXxxGQABDQRGk6GLWp8cwU",
      "name": "Marks & Spencer",
      "address": "22-28 Queen's Road Central, Central",
      "lat": 22.2811366,
      "lng": 114.1568023,
      "rating": 4.2,
      "userRatingsTotal": 1602,
      "priceLevel": null,
      "types": [
        "department_store",
        "shoe_store",
        "clothing_store",
        "store",
        "point_of_interest",
        "establishment"
      ],
      "businessStatus": "OPERATIONAL",
      "openNow": true
    },
    {
      "placeId": "ChIJvdEdo2QABDQRUrXM3junB1A",
      "name": "Central",
      "address": "",
      "lat": 22.2799907,
      "lng": 114.1587983,
      "rating": null,
      "userRatingsTotal": 0,
      "priceLevel": null,
      "types": [
        "neighborhood",
        "political"
      ],
      "businessStatus": "",
      "openNow": null
    },
    {
      "placeId": "ChIJAzBsKmUABDQRPgsNEjgJvO4",
      "name": "Mini Central",
      "address": "38 Ice House Street, Central",
      "lat": 22.280489,
      "lng": 114.15634,
      "rating": 3.1,
      "userRatingsTotal": 1464,
      "priceLevel": null,
      "types": [
        "lodging",
        "point_of_interest",
        "establishment"
      ],
      "businessStatus": "OPERATIONAL",
      "openNow": true
    },
    {
      "placeId": "ChIJvaIYLHsABDQR6SK_GrY0xqc",
      "name": "California Tower",
      "address": "30-32 D'Aguilar Street, Central",
      "lat": 22.280906,
      "lng": 114.1554893,
      "rating": 4.1,
      "userRatingsTotal": 244,
      "priceLevel": 3,
      "types": [
        "point_of_interest",
        "establishment"
      ],
      "businessStatus": "OPERATIONAL",
      "openNow": null
    },
    {
      "placeId": "ChIJXbxoUXsABDQRMl52jeBvb4o",
      "name": "The Pottinger Hong Kong",
      "address": "74 Queen's Road Central (Hotel main entrance:, 21 Stanley Street, Central",
      "lat": 22.2828401,
      "lng": 114.1553894,
      "rating": 4.3,
      "userRatingsTotal": 331,
      "priceLevel": null,
      "types": [
        "lodging",
        "point_of_interest",
        "establishment"
      ],
      "businessStatus": "OPERATIONAL",
      "openNow": true
    },
    {
      "placeId": "ChIJef6D02QABDQRg59dMY-eP4A",
      "name": "Sushi Kuu",
      "address": "Baskerville House, G1 號舖, 22 號 Ice House Street, Central",
      "lat": 22.2798091,
      "lng": 114.1566967,
      "rating": 4.2,
      "userRatingsTotal": 410,
      "priceLevel": null,
      "types": [
        "restaurant",
        "food",
        "point_of_interest",
        "establishment"
      ],
      "businessStatus": "OPERATIONAL",
      "openNow": true
    },
    {
      "placeId": "ChIJQUN7nGQABDQRFH3IeN5M_sw",
      "name": "Delifrance",
      "address": "1樓, World Wide House, 19號 Des Voeux Road Central, Central",
      "lat": 22.2826295,
      "lng": 114.157823,
      "rating": 3.9,
      "userRatingsTotal": 436,
      "priceLevel": 2,
      "types": [
        "restaurant",
        "food",
        "point_of_interest",
        "establishment"
      ],
      "businessStatus": "OPERATIONAL",
      "openNow": true
    },
    {
      "placeId": "ChIJvT_yAGQABDQRX5u2MXzRpd4",
      "name": "Hong Kong City Hall",
      "address": "五號, 5 愛丁堡廣場, 中環",
      "lat": 22.2822389,
      "lng": 114.1616361,
      "rating": 4.2,
      "userRatingsTotal": 2736,
      "priceLevel": null,
      "types": [
        "point_of_interest",
        "establishment"
      ],
      "businessStatus": "OPERATIONAL",
      "openNow": true
    },
    {
      "placeId": "ChIJsR09KGUABDQR6kwHfMhefKA",
      "name": "Olé Spanish Restaurant",
      "address": "1/F, Shun Ho Tower, 24-30 Ice House Street, Central",
      "lat": 22.280307,
      "lng": 114.156465,
      "rating": 4.4,
      "userRatingsTotal": 733,
      "priceLevel": 3,
      "types": [
        "restaurant",
        "food",
        "point_of_interest",
        "establishment"
      ],
      "businessStatus": "OPERATIONAL",
      "openNow": true
    },
    {
      "placeId": "ChIJEdg5zGQABDQRjwhy1VOi-Ek",
      "name": "HKUAA Clubhouse",
      "address": "No.2, Yip Fung Building Room 101, D'Aguilar Street",
      "lat": 22.2813798,
      "lng": 114.1562058,
      "rating": 4.1,
      "userRatingsTotal": 284,
      "priceLevel": 2,
      "types": [
        "restaurant",
        "food",
        "point_of_interest",
        "establishment"
      ],
      "businessStatus": "OPERATIONAL",
      "openNow": true
    },
    {
      "placeId": "ChIJl9GLL10ABDQRKPU1Y5scQts",
      "name": "Happy Bakery",
      "address": "66-68 Queen's Road East, Queen's Road East, Wan Chai",
      "lat": 22.2767925,
      "lng": 114.1693214,
      "rating": 4,
      "userRatingsTotal": 415,
      "priceLevel": 1,
      "types": [
        "bakery",
        "food",
        "store",
        "point_of_interest",
        "establishment"
      ],
      "businessStatus": "OPERATIONAL",
      "openNow": true
    },
    {
      "placeId": "ChIJRUISt2cABDQRRhmEvw4F1P8",
      "name": "La Maison du Chocolat Pacific Place",
      "address": "88 Queensway, Pacific Place - Shop 246, Level 2",
      "lat": 22.2771772,
      "lng": 114.1650743,
      "rating": 4.4,
      "userRatingsTotal": 8,
      "priceLevel": null,
      "types": [
        "bakery",
        "food",
        "store",
        "point_of_interest",
        "establishment"
      ],
      "businessStatus": "OPERATIONAL",
      "openNow": true
    },
    {
      "placeId": "ChIJY0UbcnsABDQRGSLSUdFl1yI",
      "name": "Tai Cheong Bakery",
      "address": "35號 Lyndhurst Terrace, Central",
      "lat": 22.282594,
      "lng": 114.153615,
      "rating": 3.9,
      "userRatingsTotal": 2923,
      "priceLevel": 1,
      "types": [
        "bakery",
        "food",
        "store",
        "point_of_interest",
        "establishment"
      ],
      "businessStatus": "OPERATIONAL",
      "openNow": null
    },
    {
      "placeId": "ChIJgb8yI2MABDQRWc7wFEJ9DLo",
      "name": "Tea WG Boutique (ifc mall)",
      "address": "Podium Level One, #1022, IFC Mall, 1 Harbour View Street, Central",
      "lat": 22.2849042,
      "lng": 114.1569078,
      "rating": 4.1,
      "userRatingsTotal": 213,
      "priceLevel": null,
      "types": [
        "bakery",
        "restaurant",
        "food",
        "store",
        "point_of_interest",
        "establishment"
      ],
      "businessStatus": "OPERATIONAL",
      "openNow": true
    },
    {
      "placeId": "ChIJo_OoPGMABDQRZQOUrKUC6Ng",
      "name": "La Maison Du Chocolat IFC",
      "address": "IFC Mall Harvour View Street Central",
      "lat": 22.2842044,
      "lng": 114.1590016,
      "rating": 4.3,
      "userRatingsTotal": 18,
      "priceLevel": null,
      "types": [
        "bakery",
        "food",
        "store",
        "point_of_interest",
        "establishment"
      ],
      "businessStatus": "OPERATIONAL",
      "openNow": true
    },
    {
      "placeId": "ChIJ8aim22QABDQRGPruzeBCWgA",
      "name": "Complete Deelite",
      "address": "3/F, On Lan Centre, 11 - 15 On Lan Street, Central",
      "lat": 22.2808293,
      "lng": 114.1568952,
      "rating": 4.4,
      "userRatingsTotal": 31,
      "priceLevel": null,
      "types": [
        "bakery",
        "school",
        "food",
        "home_goods_store",
        "store",
        "point_of_interest",
        "establishment"
      ],
      "businessStatus": "OPERATIONAL",
      "openNow": null
    },
    {
      "placeId": "ChIJEXMJ7XwABDQRHkQ2_q-FDnM",
      "name": "Jenny Bakery Sheung Wan",
      "address": "號地舖, 15 Wing Wo Street, Sheung Wan",
      "lat": 22.285103,
      "lng": 114.1537285,
      "rating": 4,
      "userRatingsTotal": 3422,
      "priceLevel": 2,
      "types": [
        "tourist_attraction",
        "bakery",
        "food",
        "store",
        "point_of_interest",
        "establishment"
      ],
      "businessStatus": "OPERATIONAL",
      "openNow": null
    },
    {
      "placeId": "ChIJbyQoDGMABDQRgj0FivhB7CY",
      "name": "Mrs Fields Cookies",
      "address": "CEN E2號舖, 中環港鐵站, Central",
      "lat": 22.2821017,
      "lng": 114.1582532,
      "rating": 4.1,
      "userRatingsTotal": 27,
      "priceLevel": 2,
      "types": [
        "bakery",
        "food",
        "store",
        "point_of_interest",
        "establishment"
      ],
      "businessStatus": "OPERATIONAL",
      "openNow": true
    },
    {
      "placeId": "ChIJhTShaVsABDQRzXsX0gVupkc",
      "name": "Pak See Kut Cake Shop",
      "address": "號地下, 67號 Wan Chai Road, Wan Chai",
      "lat": 22.27618739999999,
      "lng": 114.174724,
      "rating": 4,
      "userRatingsTotal": 135,
      "priceLevel": 1,
      "types": [
        "bakery",
        "food",
        "store",
        "point_of_interest",
        "establishment"
      ],
      "businessStatus": "OPERATIONAL",
      "openNow": true
    },
    {
      "placeId": "ChIJz5a-s1sABDQRaSmyCK9ncjA",
      "name": "Panash (Wan Chai)",
      "address": "Shop D, G/F, Easey Comm.Bldg, 253-261 Hennessy Road, Wan Chai",
      "lat": 22.2781136,
      "lng": 114.1764764,
      "rating": 3.9,
      "userRatingsTotal": 56,
      "priceLevel": 2,
      "types": [
        "bakery",
        "food",
        "store",
        "point_of_interest",
        "establishment"
      ],
      "businessStatus": "OPERATIONAL",
      "openNow": true
    },
    {
      "placeId": "ChIJoQTZXWQABDQRGKVv-zNNsuU",
      "name": "Cova Pasticceria & Confetteria",
      "address": "中環遮打道10號太子大廈1樓134-135號舖",
      "lat": 22.2809696,
      "lng": 114.1591583,
      "rating": 4,
      "userRatingsTotal": 27,
      "priceLevel": null,
      "types": [
        "bakery",
        "food",
        "store",
        "point_of_interest",
        "establishment"
      ],
      "businessStatus": "OPERATIONAL",
      "openNow": null
    },
    {
      "placeId": "ChIJg85wfVwABDQR3LF1OuCOwsI",
      "name": "Maxim's Cake Lab",
      "address": "地下2 舖, On Hong Commercial Building, 145 Hennessy Road, Wan Chai",
      "lat": 22.2777489,
      "lng": 114.1730899,
      "rating": 3.4,
      "userRatingsTotal": 83,
      "priceLevel": 2,
      "types": [
        "bakery",
        "food",
        "store",
        "point_of_interest",
        "establishment"
      ],
      "businessStatus": "OPERATIONAL",
      "openNow": true
    },
    {
      "placeId": "ChIJn5fyD2MABDQRVFsVTn0D790",
      "name": "Yamazaki",
      "address": "香港 站 閘 內 hok26 號 b 舖 線, Tung Chung",
      "lat": 22.284651,
      "lng": 114.158307,
      "rating": 4,
      "userRatingsTotal": 5,
      "priceLevel": null,
      "types": [
        "bakery",
        "food",
        "store",
        "point_of_interest",
        "establishment"
      ],
      "businessStatus": "OPERATIONAL",
      "openNow": true
    },
    {
      "placeId": "ChIJAQDsmHwABDQR2pUW69p13Kk",
      "name": "聖安娜餅屋",
      "address": "地下1號舖, V. Heun Building, 138號 Queen's Road Central, Central",
      "lat": 22.2839685,
      "lng": 114.154231,
      "rating": 3.8,
      "userRatingsTotal": 29,
      "priceLevel": null,
      "types": [
        "bakery",
        "food",
        "store",
        "point_of_interest",
        "establishment"
      ],
      "businessStatus": "OPERATIONAL",
      "openNow": true
    },
    {
      "placeId": "ChIJ0wzbsGQABDQRPpu_Dv6CjsA",
      "name": "Homebake",
      "address": "Shop B, G/F, 33&33A B, 33號 Queen's Road Central, Central",
      "lat": 22.2822463,
      "lng": 114.1563754,
      "rating": 3.6,
      "userRatingsTotal": 219,
      "priceLevel": 2,
      "types": [
        "bakery",
        "food",
        "point_of_interest",
        "store",
        "establishment"
      ],
      "businessStatus": "OPERATIONAL",
      "openNow": true
    },
    {
      "placeId": "ChIJo_OoPGMABDQR1wFK_99TD8U",
      "name": "Little Mermaid Bakery (IFC店)",
      "address": "Man Kwong Street, Central",
      "lat": 22.2871292,
      "lng": 114.1579385,
      "rating": 3.7,
      "userRatingsTotal": 9,
      "priceLevel": null,
      "types": [
        "bakery",
        "food",
        "point_of_interest",
        "store",
        "establishment"
      ],
      "businessStatus": "OPERATIONAL",
      "openNow": true
    },
    {
      "placeId": "ChIJFdQZmF4ABDQRFIJfJ_X3dp0",
      "name": "Chocolatier at Grand Hyatt Hong Kong",
      "address": "Grand Hyatt, Mezzanine Floor, 1 Harbour Road, Wan Chai",
      "lat": 22.2813846,
      "lng": 114.1721652,
      "rating": 3.7,
      "userRatingsTotal": 14,
      "priceLevel": null,
      "types": [
        "bakery",
        "food",
        "point_of_interest",
        "store",
        "establishment"
      ],
      "businessStatus": "OPERATIONAL",
      "openNow": true
    },
    {
      "placeId": "ChIJ7TggpfIABDQR6sh-qq_Nuwg",
      "name": "Cova Pasticceria & Confetteria",
      "address": "Shop 116A & B, Ocean Centre, 3-27 Canton Road, Tsim Sha Tsui",
      "lat": 22.2960139,
      "lng": 114.1685103,
      "rating": 4.1,
      "userRatingsTotal": 131,
      "priceLevel": null,
      "types": [
        "bakery",
        "cafe",
        "food",
        "point_of_interest",
        "store",
        "establishment"
      ],
      "businessStatus": "OPERATIONAL",
      "openNow": true
    },
    {
      "placeId": "ChIJx0Vu6YD_AzQROICEfv1y_-c",
      "name": "Maxim's Cakes",
      "address": "307 Queen's Road West, Sai Wan",
      "lat": 22.287017,
      "lng": 114.1420182,
      "rating": 3.2,
      "userRatingsTotal": 49,
      "priceLevel": 2,
      "types": [
        "bakery",
        "food",
        "point_of_interest",
        "store",
        "establishment"
      ],
      "businessStatus": "OPERATIONAL",
      "openNow": true
    },
    {
      "placeId": "ChIJuRVVs1sABDQRzm8U5FZERaw",
      "name": "Wing Wah",
      "address": "1 Stewart Road, Wan Chai",
      "lat": 22.27832609999999,
      "lng": 114.1766532,
      "rating": 3.9,
      "userRatingsTotal": 102,
      "priceLevel": 2,
      "types": [
        "bakery",
        "food",
        "point_of_interest",
        "store",
        "establishment"
      ],
      "businessStatus": "OPERATIONAL",
      "openNow": null
    },
    {
      "placeId": "ChIJq2I_BGMABDQRfOpvWsXc-tg",
      "name": "Kee Wah Bakery",
      "address": "Shop No. 1020, Podium Level, One International Finance Centre, 1 Harbour View Street, Central",
      "lat": 22.2849042,
      "lng": 114.1569078,
      "rating": 4.1,
      "userRatingsTotal": 61,
      "priceLevel": 2,
      "types": [
        "bakery",
        "food",
        "point_of_interest",
        "store",
        "establishment"
      ],
      "businessStatus": "OPERATIONAL",
      "openNow": true
    },
    {
      "placeId": "ChIJvcq70n0ABDQRC0yDOmWo580",
      "name": "V8 Bakery",
      "address": "號舖, 8-9 Des Voeux Road Central, Sheung Wan",
      "lat": 22.2867101,
      "lng": 114.1505402,
      "rating": 4.1,
      "userRatingsTotal": 27,
      "priceLevel": null,
      "types": [
        "bakery",
        "food",
        "point_of_interest",
        "store",
        "establishment"
      ],
      "businessStatus": "OPERATIONAL",
      "openNow": true
    },
    {
      "placeId": "ChIJ90bsmX4ABDQRxuodaX34Lz4",
      "name": "美心西餅",
      "address": "368 Queen's Road Central, Tai Ping Shan",
      "lat": 22.2858925,
      "lng": 114.1491793,
      "rating": 3.7,
      "userRatingsTotal": 6,
      "priceLevel": 2,
      "types": [
        "bakery",
        "food",
        "point_of_interest",
        "store",
        "establishment"
      ],
      "businessStatus": "OPERATIONAL",
      "openNow": true
    },
    {
      "placeId": "ChIJhTUiv4D_AzQRf4yt-Dfxf3s",
      "name": "A-1 BAKERY",
      "address": "8 First Street, Sai Ying Pun",
      "lat": 22.2864523,
      "lng": 114.1426059,
      "rating": 2.9,
      "userRatingsTotal": 57,
      "priceLevel": 2,
      "types": [
        "bakery",
        "food",
        "point_of_interest",
        "store",
        "establishment"
      ],
      "businessStatus": "OPERATIONAL",
      "openNow": true
    },
    {
      "placeId": "ChIJq6raJQwBBDQR87s6sa0Zm_o",
      "name": "奇華餅家 (中環站店)",
      "address": "G/F & No. 101, 1/F, Nexxus Building, MTR central station, 77 Des Voeux Road Central, Central",
      "lat": 22.2821338,
      "lng": 114.1581282,
      "rating": 4.3,
      "userRatingsTotal": 32,
      "priceLevel": 2,
      "types": [
        "bakery",
        "food",
        "point_of_interest",
        "store",
        "establishment"
      ],
      "businessStatus": "OPERATIONAL",
      "openNow": true
    },
    {
      "placeId": "ChIJKyFC52QABDQRM8B_IoJtqwU",
      "name": "Zoë Cake",
      "address": "Shop 2, 1/F, New World Tower, 1 16- Queen's, 1 Queen's Road Central",
      "lat": 22.280489,
      "lng": 114.157237,
      "rating": 4.4,
      "userRatingsTotal": 11,
      "priceLevel": null,
      "types": [
        "bakery",
        "food",
        "point_of_interest",
        "store",
        "establishment"
      ],
      "businessStatus": "OPERATIONAL",
      "openNow": null
    },
    {
      "placeId": "ChIJTeO_YGMABDQRsjhwGCAT1wM",
      "name": "Maria's Bakery",
      "address": "Shop A ,G/F, Heung Lam Building, 23 Connaught Road Central, Central",
      "lat": 22.2832638,
      "lng": 114.157402,
      "rating": 3.5,
      "userRatingsTotal": 94,
      "priceLevel": null,
      "types": [
        "bakery",
        "food",
        "point_of_interest",
        "store",
        "establishment"
      ],
      "businessStatus": "OPERATIONAL",
      "openNow": true
    },
    {
      "placeId": "ChIJNXnFAWMABDQRv0XxcCgi_Tc",
      "name": "Lady M Cake Boutique (ifc Mall)",
      "address": "IFC, HK Hong Kong Island Central Shop 2096A, 2/F, 8 Finance Street",
      "lat": 22.2847889,
      "lng": 114.1593513,
      "rating": 3.7,
      "userRatingsTotal": 262,
      "priceLevel": null,
      "types": [
        "bakery",
        "restaurant",
        "food",
        "point_of_interest",
        "store",
        "establishment"
      ],
      "businessStatus": "OPERATIONAL",
      "openNow": true
    },
    {
      "placeId": "ChIJ941_r2MABDQRlv2shQAW2vk",
      "name": "Paul Lafayet",
      "address": "Shop 1104B, 1 Finance Street, Central",
      "lat": 22.2849195,
      "lng": 114.1591609,
      "rating": 3.8,
      "userRatingsTotal": 35,
      "priceLevel": null,
      "types": [
        "bakery",
        "food",
        "point_of_interest",
        "store",
        "establishment"
      ],
      "businessStatus": "OPERATIONAL",
      "openNow": true
    },
    {
      "placeId": "ChIJn-mqF2MABDQRYUaZped23EM",
      "name": "Yoku Moku",
      "address": "國際金融中心商場一期 三樓3021號舖, 1號 Harbour View Street, Central",
      "lat": 22.2849042,
      "lng": 114.1569078,
      "rating": 3.3,
      "userRatingsTotal": 9,
      "priceLevel": null,
      "types": [
        "bakery",
        "food",
        "point_of_interest",
        "store",
        "establishment"
      ],
      "businessStatus": "OPERATIONAL",
      "openNow": true
    },
    {
      "placeId": "ChIJAYsvu3wABDQReR7tq01_pzI",
      "name": "Bagels Alley",
      "address": "Shop A1, G/F, 1 Jubilee Street, Central",
      "lat": 22.284235,
      "lng": 114.1546783,
      "rating": 4.4,
      "userRatingsTotal": 144,
      "priceLevel": 2,
      "types": [
        "bakery",
        "cafe",
        "food",
        "point_of_interest",
        "store",
        "establishment"
      ],
      "businessStatus": "OPERATIONAL",
      "openNow": null
    },
    {
      "placeId": "ChIJa2Z_C3sABDQR6C22X_0YA1Y",
      "name": "Marks & Spencer | M&S Food",
      "address": "1/F, Hollywood Road, Central",
      "lat": 22.2820934,
      "lng": 114.1532047,
      "rating": 4.2,
      "userRatingsTotal": 156,
      "priceLevel": 2,
      "types": [
        "convenience_store",
        "florist",
        "bakery",
        "grocery_or_supermarket",
        "restaurant",
        "food",
        "point_of_interest",
        "store",
        "establishment"
      ],
      "businessStatus": "OPERATIONAL",
      "openNow": true
    },
    {
      "placeId": "ChIJjVWIU3oABDQRB-uFKaueIrQ",
      "name": "MAISON KAYSER Mid-Levels Shop",
      "address": "38 Caine Road, Mid-Levels",
      "lat": 22.2807201,
      "lng": 114.1525081,
      "rating": 3.9,
      "userRatingsTotal": 216,
      "priceLevel": 2,
      "types": [
        "bakery",
        "cafe",
        "restaurant",
        "food",
        "point_of_interest",
        "store",
        "establishment"
      ],
      "businessStatus": "OPERATIONAL",
      "openNow": true
    },
    {
      "placeId": "ChIJS-GRnXsABDQRO-CIBlQY_r8",
      "name": "FINEPRINT",
      "address": "Fineprint, 38 Peel Street, Central",
      "lat": 22.2826808,
      "lng": 114.1527794,
      "rating": 4.3,
      "userRatingsTotal": 569,
      "priceLevel": 2,
      "types": [
        "cafe",
        "bakery",
        "food",
        "point_of_interest",
        "store",
        "establishment"
      ],
      "businessStatus": "OPERATIONAL",
      "openNow": null
    },
    {
      "placeId": "ChIJ5zGete0ABDQRiMFCaPXrGYQ",
      "name": "The Mira Hong Kong",
      "address": "118-130 Nathan Road, Tsim Sha Tsui",
      "lat": 22.3003264,
      "lng": 114.1722504,
      "rating": 4.1,
      "userRatingsTotal": 4606,
      "priceLevel": null,
      "types": [
        "spa",
        "lodging",
        "bar",
        "restaurant",
        "food",
        "point_of_interest",
        "establishment"
      ],
      "businessStatus": "OPERATIONAL",
      "openNow": true
    },
    {
      "placeId": "ChIJAAAAAOwABDQRP_PjmMCBYQo",
      "name": "Regent Hong Kong",
      "address": "18 Salisbury Road, Tsim Sha Tsui",
      "lat": 22.29343620000001,
      "lng": 114.1739346,
      "rating": 4.4,
      "userRatingsTotal": 4236,
      "priceLevel": null,
      "types": [
        "cafe",
        "bakery",
        "lodging",
        "restaurant",
        "food",
        "store",
        "point_of_interest",
        "establishment"
      ],
      "businessStatus": "OPERATIONAL",
      "openNow": null
    },
    {
      "placeId": "ChIJ5zGete0ABDQRKp9h-YykR2w",
      "name": "Yamm",
      "address": "The Mira Hong Kong, Mira Place, G/F, 118-130 Nathan Road, Tsim Sha Tsui",
      "lat": 22.300095,
      "lng": 114.1725341,
      "rating": 3.9,
      "userRatingsTotal": 986,
      "priceLevel": 3,
      "types": [
        "restaurant",
        "food",
        "point_of_interest",
        "establishment"
      ],
      "businessStatus": "OPERATIONAL",
      "openNow": true
    },
    {
      "placeId": "ChIJj9Moz-0ABDQRLu-ptiVn4e0",
      "name": "Paisano's",
      "address": "8 Granville Road, Tsim Sha Tsui",
      "lat": 22.2996134,
      "lng": 114.1727903,
      "rating": 4,
      "userRatingsTotal": 1361,
      "priceLevel": 2,
      "types": [
        "restaurant",
        "food",
        "point_of_interest",
        "establishment"
      ],
      "businessStatus": "OPERATIONAL",
      "openNow": true
    },
    {
      "placeId": "ChIJc2nYp_IABDQRMj2cA4UfJOA",
      "name": "Jiang Nan by Crystal Jade - Harbour City",
      "address": "3328號舖, 海港城港威商場, 廣東道, 尖沙咀",
      "lat": 22.29677,
      "lng": 114.1681525,
      "rating": 3.6,
      "userRatingsTotal": 1426,
      "priceLevel": 2,
      "types": [
        "restaurant",
        "food",
        "point_of_interest",
        "establishment"
      ],
      "businessStatus": "OPERATIONAL",
      "openNow": true
    },
    {
      "placeId": "ChIJlRM4ZPEABDQR8bMXz3Z2HrY",
      "name": "Harbourside - Hotel Buffet",
      "address": "Ground Floor, Regent Hong Kong, 18 Salisbury Road, Tsim Sha Tsui",
      "lat": 22.2933788,
      "lng": 114.1739512,
      "rating": 4.3,
      "userRatingsTotal": 618,
      "priceLevel": 4,
      "types": [
        "restaurant",
        "food",
        "point_of_interest",
        "establishment"
      ],
      "businessStatus": "OPERATIONAL",
      "openNow": true
    },
    {
      "placeId": "ChIJ1f4unO4ABDQRYYqlrxYROOU",
      "name": "The Luxe Manor",
      "address": "The Luxe Manor, 39 Kimberley Road, Tsim Sha Tsui",
      "lat": 22.3008283,
      "lng": 114.1738927,
      "rating": 4.3,
      "userRatingsTotal": 1180,
      "priceLevel": null,
      "types": [
        "night_club",
        "lodging",
        "bar",
        "restaurant",
        "food",
        "point_of_interest",
        "establishment"
      ],
      "businessStatus": "OPERATIONAL",
      "openNow": true
    },
    {
      "placeId": "ChIJTSDHc_IABDQRH4Ujcu7WTHY",
      "name": "南海一號 Nanhai No.1",
      "address": "30, iSQUARE, 63 Nathan Road, Tsim Sha Tsui",
      "lat": 22.297025,
      "lng": 114.1718959,
      "rating": 3.9,
      "userRatingsTotal": 1035,
      "priceLevel": 3,
      "types": [
        "restaurant",
        "food",
        "point_of_interest",
        "establishment"
      ],
      "businessStatus": "OPERATIONAL",
      "openNow": true
    },
    {
      "placeId": "ChIJt7YahvIABDQRAB7WMzqM0cQ",
      "name": "Gaylord Indian Restaurant",
      "address": "5/F, Prince Tower, 12A Peking Road, Tsim Sha Tsui",
      "lat": 22.2965053,
      "lng": 114.1712857,
      "rating": 4.2,
      "userRatingsTotal": 1194,
      "priceLevel": 2,
      "types": [
        "meal_takeaway",
        "restaurant",
        "food",
        "point_of_interest",
        "establishment"
      ],
      "businessStatus": "OPERATIONAL",
      "openNow": true
    },
    {
      "placeId": "ChIJ22mYAe4ABDQRNCRU2Cp2xjE",
      "name": "Cafe (Hyatt Regency Hong Kong, Tsim Sha Tsui)",
      "address": "18 Hanoi Road, Tsim Sha Tsui",
      "lat": 22.297457,
      "lng": 114.173642,
      "rating": 3.9,
      "userRatingsTotal": 508,
      "priceLevel": 3,
      "types": [
        "restaurant",
        "food",
        "point_of_interest",
        "establishment"
      ],
      "businessStatus": "OPERATIONAL",
      "openNow": true
    },
    {
      "placeId": "ChIJy1wJye0ABDQRueKCEZ_Wl6o",
      "name": "Harlan's",
      "address": "19/F, The ONE, 100 Nathan Road, Tsim Sha Tsui",
      "lat": 22.2997813,
      "lng": 114.1723859,
      "rating": 4.3,
      "userRatingsTotal": 498,
      "priceLevel": 4,
      "types": [
        "restaurant",
        "bar",
        "food",
        "point_of_interest",
        "establishment"
      ],
      "businessStatus": "OPERATIONAL",
      "openNow": true
    },
    {
      "placeId": "ChIJW8h1YvEABDQR976FSVBlaQA",
      "name": "Lai Ching Heen (Yan Toh Heen)",
      "address": "18 Salisbury Road, Tsim Sha Tsui",
      "lat": 22.2934001,
      "lng": 114.1740069,
      "rating": 4.5,
      "userRatingsTotal": 659,
      "priceLevel": 4,
      "types": [
        "restaurant",
        "food",
        "point_of_interest",
        "establishment"
      ],
      "businessStatus": "OPERATIONAL",
      "openNow": null
    },
    {
      "placeId": "ChIJpSSPyu0ABDQRch3bCw1gSto",
      "name": "Cuisine Cuisine The Mira",
      "address": "三樓, The Mira Hong Kong, 118-130號 Nathan Road, Tsim Sha Tsui",
      "lat": 22.3001499,
      "lng": 114.1721801,
      "rating": 4.2,
      "userRatingsTotal": 843,
      "priceLevel": 4,
      "types": [
        "restaurant",
        "food",
        "point_of_interest",
        "establishment"
      ],
      "businessStatus": "OPERATIONAL",
      "openNow": true
    },
    {
      "placeId": "ChIJz2BgLO0ABDQRGU4Oo7fAAHU",
      "name": "Royal Pacific Hotel",
      "address": "L3 3305A, 33 Canton Road, Tsim Sha Tsui",
      "lat": 22.3001702,
      "lng": 114.1680287,
      "rating": 4.1,
      "userRatingsTotal": 1550,
      "priceLevel": null,
      "types": [
        "bar",
        "lodging",
        "restaurant",
        "food",
        "point_of_interest",
        "establishment"
      ],
      "businessStatus": "OPERATIONAL",
      "openNow": true
    },
    {
      "placeId": "ChIJP1HU7PIABDQR60XKhtK7bWc",
      "name": "Palm Court",
      "address": "Lobby Level, The Langham, Hong Kong, 8 Peking Road, Tsim Sha Tsui",
      "lat": 22.2963927,
      "lng": 114.1697395,
      "rating": 4.2,
      "userRatingsTotal": 133,
      "priceLevel": 3,
      "types": [
        "night_club",
        "bar",
        "lodging",
        "restaurant",
        "food",
        "point_of_interest",
        "establishment"
      ],
      "businessStatus": "OPERATIONAL",
      "openNow": true
    },
    {
      "placeId": "ChIJORniSO0ABDQR7Tpz6B5plTY",
      "name": "Prince Hotel, Hong Kong",
      "address": "Harbour City, 23 Canton Road, Tsim Sha Tsui",
      "lat": 22.2992221,
      "lng": 114.1683675,
      "rating": 4.2,
      "userRatingsTotal": 919,
      "priceLevel": null,
      "types": [
        "bar",
        "lodging",
        "restaurant",
        "food",
        "point_of_interest",
        "establishment"
      ],
      "businessStatus": "OPERATIONAL",
      "openNow": null
    },
    {
      "placeId": "ChIJPS-8j-0ABDQR8iHScnofZos",
      "name": "Chee Kei",
      "address": "52 Lock Road, Tsim Sha Tsui",
      "lat": 22.2979475,
      "lng": 114.1716016,
      "rating": 4,
      "userRatingsTotal": 941,
      "priceLevel": 2,
      "types": [
        "restaurant",
        "food",
        "point_of_interest",
        "establishment"
      ],
      "businessStatus": "OPERATIONAL",
      "openNow": true
    },
    {
      "placeId": "ChIJNwZRL_IABDQRH0DQo-kHKDo",
      "name": "Morton's The Steakhouse",
      "address": "The Sheraton Hotel & Towers Fourth Level, 20 Nathan Road, Tsim Sha Tsui",
      "lat": 22.2952499,
      "lng": 114.1726456,
      "rating": 4.4,
      "userRatingsTotal": 791,
      "priceLevel": 4,
      "types": [
        "restaurant",
        "food",
        "point_of_interest",
        "establishment"
      ],
      "businessStatus": "OPERATIONAL",
      "openNow": true
    },
    {
      "placeId": "ChIJ55iNRPIABDQRzVHRowexvXA",
      "name": "The Window Cafe",
      "address": "2樓, The Kowloon Hotel, 19～21號 Nathan Road, Tsim Sha Tsui",
      "lat": 22.29573959999999,
      "lng": 114.1716649,
      "rating": 3.9,
      "userRatingsTotal": 742,
      "priceLevel": null,
      "types": [
        "restaurant",
        "food",
        "point_of_interest",
        "establishment"
      ],
      "businessStatus": "OPERATIONAL",
      "openNow": true
    },
    {
      "placeId": "ChIJRROdu-8ABDQRvUy37dzrim8",
      "name": "The Royal Garden",
      "address": "69號 Mody Road, Tsim Sha Tsui East",
      "lat": 22.2984848,
      "lng": 114.1776012,
      "rating": 4.2,
      "userRatingsTotal": 4580,
      "priceLevel": null,
      "types": [
        "lodging",
        "restaurant",
        "food",
        "point_of_interest",
        "establishment"
      ],
      "businessStatus": "OPERATIONAL",
      "openNow": null
    },
    {
      "placeId": "ChIJa4ErmfIABDQRQPBpqwI9EpY",
      "name": "Curry House CoCo Ichibanya (Tsim Sha Tsui)",
      "address": "Shop 302, 30 Canton Road, Tsim Sha Tsui",
      "lat": 22.2978636,
      "lng": 114.1690261,
      "rating": 4,
      "userRatingsTotal": 371,
      "priceLevel": 2,
      "types": [
        "restaurant",
        "food",
        "point_of_interest",
        "establishment"
      ],
      "businessStatus": "OPERATIONAL",
      "openNow": true
    },
    {
      "placeId": "ChIJz4F4J_MABDQRKhSlO7UY_qM",
      "name": "Cucina",
      "address": "Harbour City, Level 6, Marco Polo Hongkong Hotel, 3 Canton Road, Tsim Sha Tsui",
      "lat": 22.2951517,
      "lng": 114.1687776,
      "rating": 4.4,
      "userRatingsTotal": 596,
      "priceLevel": 3,
      "types": [
        "restaurant",
        "food",
        "point_of_interest",
        "establishment"
      ],
      "businessStatus": "OPERATIONAL",
      "openNow": true
    },
    {
      "placeId": "ChIJQUAHOOwABDQRbIsmNAIEbxc",
      "name": "Sun Tung Lok Chinese Cuisine",
      "address": "Hong Kong",
      "lat": 22.30095,
      "lng": 114.1721595,
      "rating": 4.1,
      "userRatingsTotal": 467,
      "priceLevel": null,
      "types": [
        "restaurant",
        "food",
        "point_of_interest",
        "establishment"
      ],
      "businessStatus": "OPERATIONAL",
      "openNow": true
    },
    {
      "placeId": "ChIJ3XN-zJIABDQR9tT_W4_TQ-g",
      "name": "Café on the PARK",
      "address": "2/F, Hotel Wing Royal Pacific Hotel, 33 Canton Road, Tsim Sha Tsui",
      "lat": 22.3003748,
      "lng": 114.1677238,
      "rating": 3.8,
      "userRatingsTotal": 394,
      "priceLevel": null,
      "types": [
        "cafe",
        "restaurant",
        "food",
        "point_of_interest",
        "establishment"
      ],
      "businessStatus": "CLOSED_TEMPORARILY",
      "openNow": null
    },
    {
      "placeId": "ChIJabcYFZEABDQR8XQIpb3gBt0",
      "name": "Café 103 | The Ritz-Carlton, Hong Kong",
      "address": "International Commerce Centre (ICC), 1 Austin Road West, Tsim Sha Tsui",
      "lat": 22.3049692,
      "lng": 114.1615821,
      "rating": 4,
      "userRatingsTotal": 383,
      "priceLevel": 4,
      "types": [
        "cafe",
        "restaurant",
        "food",
        "point_of_interest",
        "establishment"
      ],
      "businessStatus": "OPERATIONAL",
      "openNow": true
    },
    {
      "placeId": "ChIJN201aPIABDQRZR8OBl_U8EM",
      "name": "Lok Yuen",
      "address": "Hong Kong",
      "lat": 22.2962104,
      "lng": 114.1716137,
      "rating": 3.9,
      "userRatingsTotal": 42,
      "priceLevel": null,
      "types": [
        "cafe",
        "food",
        "point_of_interest",
        "store",
        "establishment"
      ],
      "businessStatus": "OPERATIONAL",
      "openNow": true
    },
    {
      "placeId": "ChIJR5x3iPIABDQRyRlvsnMBH8g",
      "name": "Barista Caffe",
      "address": "3/F, 18號 Ashley Road, Tsim Sha Tsui",
      "lat": 22.2971462,
      "lng": 114.1707116,
      "rating": 4.2,
      "userRatingsTotal": 413,
      "priceLevel": 2,
      "types": [
        "cafe",
        "food",
        "point_of_interest",
        "store",
        "establishment"
      ],
      "businessStatus": "OPERATIONAL",
      "openNow": null
    },
    {
      "placeId": "ChIJlSXva8AABDQRTEW6cR6gd90",
      "name": "Kubrick",
      "address": "地眾坊街3號 駿發花園H2地舖, Yau Ma Tei",
      "lat": 22.3107689,
      "lng": 114.1689492,
      "rating": 4.1,
      "userRatingsTotal": 647,
      "priceLevel": 2,
      "types": [
        "cafe",
        "food",
        "point_of_interest",
        "establishment"
      ],
      "businessStatus": "OPERATIONAL",
      "openNow": true
    },
    {
      "placeId": "ChIJmT3lbPIABDQRY1g0KyDwofo",
      "name": "Panash Cafe (iSQUARE)",
      "address": "Shop 305, 3/F, iSQUARE, 63 Nathan Road, Tsim Sha Tsui",
      "lat": 22.297025,
      "lng": 114.1718959,
      "rating": 3.7,
      "userRatingsTotal": 252,
      "priceLevel": 2,
      "types": [
        "cafe",
        "food",
        "point_of_interest",
        "establishment"
      ],
      "businessStatus": "OPERATIONAL",
      "openNow": true
    },
    {
      "placeId": "ChIJ0alD0e8ABDQR61RkhAptql8",
      "name": "Café Kool",
      "address": "Mezzanine Level, 64 Mody Road, Tsim Sha Tsui East",
      "lat": 22.296987,
      "lng": 114.1770057,
      "rating": 4,
      "userRatingsTotal": 1315,
      "priceLevel": 3,
      "types": [
        "cafe",
        "restaurant",
        "food",
        "point_of_interest",
        "store",
        "establishment"
      ],
      "businessStatus": "OPERATIONAL",
      "openNow": true
    },
    {
      "placeId": "ChIJdb45FZEABDQR5OP66TjS6Xc",
      "name": "The Lounge & Bar | The Ritz-Carlton, Hong Kong",
      "address": "International Commerce Centre (ICC), 102/F, The Ritz-Carlton, Hong Kong, 1 Austin Road West, Tsim Sha Tsui",
      "lat": 22.3034601,
      "lng": 114.1602218,
      "rating": 4.4,
      "userRatingsTotal": 307,
      "priceLevel": null,
      "types": [
        "cafe",
        "restaurant",
        "food",
        "point_of_interest",
        "establishment"
      ],
      "businessStatus": "OPERATIONAL",
      "openNow": true
    },
    {
      "placeId": "ChIJdadyrZYABDQRUgG6gZfI_O0",
      "name": "HABITŪ Elements",
      "address": "1001, 1 Austin Road West, Yau Ma Tei",
      "lat": 22.3030548,
      "lng": 114.1631317,
      "rating": 3.6,
      "userRatingsTotal": 369,
      "priceLevel": 2,
      "types": [
        "restaurant",
        "meal_delivery",
        "cafe",
        "food",
        "point_of_interest",
        "store",
        "establishment"
      ],
      "businessStatus": "OPERATIONAL",
      "openNow": true
    },
    {
      "placeId": "ChIJwVykxpIABDQRewoQkFvQKIo",
      "name": "Pacific Coffee",
      "address": "Shop No. 4A&4B, Promenade Level, Tower 1, China Hong Kong City, 33 Canton Road, Tsim Sha Tsui",
      "lat": 22.3002221,
      "lng": 114.1677279,
      "rating": 4,
      "userRatingsTotal": 125,
      "priceLevel": 2,
      "types": [
        "cafe",
        "food",
        "point_of_interest",
        "store",
        "establishment"
      ],
      "businessStatus": "OPERATIONAL",
      "openNow": null
    },
    {
      "placeId": "ChIJi7tgELIBBDQR6XPSCGmGniw",
      "name": "The Lobby Lounge - Afternoon Tea",
      "address": "18 Salisbury Road, Tsim Sha Tsui",
      "lat": 22.2933788,
      "lng": 114.1739512,
      "rating": 4.3,
      "userRatingsTotal": 181,
      "priceLevel": null,
      "types": [
        "cafe",
        "bakery",
        "restaurant",
        "food",
        "point_of_interest",
        "store",
        "establishment"
      ],
      "businessStatus": "OPERATIONAL",
      "openNow": true
    },
    {
      "placeId": "ChIJBwT99OsABDQRkVPxWH1z6Xg",
      "name": "Starbucks",
      "address": "102 Austin Road, Tsim Sha Tsui",
      "lat": 22.3031681,
      "lng": 114.1723191,
      "rating": 3.9,
      "userRatingsTotal": 703,
      "priceLevel": 2,
      "types": [
        "cafe",
        "food",
        "point_of_interest",
        "store",
        "establishment"
      ],
      "businessStatus": "OPERATIONAL",
      "openNow": true
    },
    {
      "placeId": "ChIJhQzwQ_IABDQRG22S6tz6St8",
      "name": "Coffee Corner",
      "address": "The Kowloon Hotel, 19-21 Nathan Road, Tsim Sha Tsui",
      "lat": 22.2958043,
      "lng": 114.1718959,
      "rating": 3.7,
      "userRatingsTotal": 16,
      "priceLevel": null,
      "types": [
        "cafe",
        "food",
        "point_of_interest",
        "store",
        "establishment"
      ],
      "businessStatus": "OPERATIONAL",
      "openNow": true
    },
    {
      "placeId": "ChIJVaLtEPIABDQRlOf0CV4BqD0",
      "name": "Lan Fong Yuen Tsim Sha Tsui",
      "address": "44 Nathan Road, Tsim Sha Tsui",
      "lat": 22.296396,
      "lng": 114.1728114,
      "rating": 3.8,
      "userRatingsTotal": 2532,
      "priceLevel": 2,
      "types": [
        "cafe",
        "meal_takeaway",
        "restaurant",
        "food",
        "point_of_interest",
        "store",
        "establishment"
      ],
      "businessStatus": "OPERATIONAL",
      "openNow": null
    },
    {
      "placeId": "ChIJyRdqy-0ABDQR8PTYEOTkcUs",
      "name": "COCO",
      "address": "Ground Floor, The Mira Hong Kong, 118 Nathan Road, Tsim Sha Tsui",
      "lat": 22.3000829,
      "lng": 114.1725374,
      "rating": 3.6,
      "userRatingsTotal": 29,
      "priceLevel": null,
      "types": [
        "cafe",
        "food",
        "point_of_interest",
        "establishment"
      ],
      "businessStatus": "OPERATIONAL",
      "openNow": true
    },
    {
      "placeId": "ChIJ7WQyoIoBBDQR7NyFsJJAo-o",
      "name": "The Peninsula Boutique & Café",
      "address": "The Peninsula Arcade, Salisbury Road, Tsim Sha Tsui",
      "lat": 22.2951206,
      "lng": 114.1715171,
      "rating": 4.3,
      "userRatingsTotal": 133,
      "priceLevel": null,
      "types": [
        "cafe",
        "food",
        "point_of_interest",
        "establishment"
      ],
      "businessStatus": "OPERATIONAL",
      "openNow": null
    },
    {
      "placeId": "ChIJy1wJye0ABDQRrZT98NNR3DA",
      "name": "HABITŪ (The ONE)",
      "address": "Shop 5A, 100 Nathan Road, Tsim Sha Tsui",
      "lat": 22.2998471,
      "lng": 114.1725035,
      "rating": 3.8,
      "userRatingsTotal": 236,
      "priceLevel": 2,
      "types": [
        "cafe",
        "restaurant",
        "food",
        "point_of_interest",
        "store",
        "establishment"
      ],
      "businessStatus": "OPERATIONAL",
      "openNow": true
    },
    {
      "placeId": "ChIJJ7ogb-oABDQRufwEKu8ZtcQ",
      "name": "STARBUCKS Nathan Hotel Shop",
      "address": "Shop A, G/F, Nathan Hotel, 378 Nathan Road, Yau Ma Tei",
      "lat": 22.307698,
      "lng": 114.171577,
      "rating": 3.7,
      "userRatingsTotal": 436,
      "priceLevel": 2,
      "types": [
        "cafe",
        "food",
        "point_of_interest",
        "store",
        "establishment"
      ],
      "businessStatus": "OPERATIONAL",
      "openNow": true
    },
    {
      "placeId": "ChIJe7mMqvIABDQRHauzL6DE8J0",
      "name": "Café de Coral",
      "address": "Harbour City, Canton Road, Tsim Sha Tsui",
      "lat": 22.2986638,
      "lng": 114.1683417,
      "rating": 3.6,
      "userRatingsTotal": 625,
      "priceLevel": 1,
      "types": [
        "cafe",
        "restaurant",
        "food",
        "point_of_interest",
        "establishment"
      ],
      "businessStatus": "OPERATIONAL",
      "openNow": true
    },
    {
      "placeId": "ChIJM5JhU_IABDQRBzB1HDpD7-k",
      "name": "Mall Cafe",
      "address": "41 Salisbury Road, Tsim Sha Tsui",
      "lat": 22.2951876,
      "lng": 114.1711065,
      "rating": 4.1,
      "userRatingsTotal": 349,
      "priceLevel": 2,
      "types": [
        "cafe",
        "restaurant",
        "food",
        "point_of_interest",
        "establishment"
      ],
      "businessStatus": "OPERATIONAL",
      "openNow": true
    },